[{"id":"6ece161a-c330-4a6c-beb4-067171ef0cb3","name":"גן התקוה","address":"תל אביב-יפו, ההגנה, 108","latitude":32.0252464,"longitude":34.806298399999996},{"id":"6ef8cae4-6e5c-45e4-b8a2-119942210379","name":"מגרש ורדון","address":"יואב","latitude":31.673140799999995,"longitude":34.8403408},{"id":"6efb0755-fa81-482e-a32e-db0e7c3af0ba","name":"גני אביב","address":"לוד, גני אביב, אהרון לובלין, 4","latitude":31.958949599999993,"longitude":34.8842991},{"id":"6f71b4d3-b067-4ed2-8f78-0f74fcbafec0","name":"מגרש משולב שדה עוזיה","address":"באר טוביה, מושב שדה עוזיה","latitude":31.758437,"longitude":34.678194},{"id":"6f820e2a-2987-401e-b1a4-cc277dffe8c7","name":"מגרש משולב יסודי מבועים","address":"מרחבים","latitude":31.3138394,"longitude":34.5749882},{"id":"6fbdf2aa-842e-4884-93f1-58ab3023b334","name":"רב תכליתי","address":"בית שאן, שכ\u0027 ז\u0027בוטינסקי, שכ\u0027 ז\u0027בוטינסקי","latitude":32.497102999999996,"longitude":35.497336},{"id":"700b9bca-2898-4302-9c15-3567ab06a93d","name":"מעלות","address":"ראשון לציון, החרצית","latitude":31.97337,"longitude":34.786351},{"id":"7028f574-9fef-4e30-9e22-bb885f936e27","name":"מגרש חטה\"ב פינשטיין","address":"פתח תקווה","latitude":32.084041,"longitude":34.887761999999995},{"id":"70290321-bc5f-4010-91b2-c738c1083486","name":"מגרש כדורגל  -  מגרש פתוח - שמואל הנביא","address":"ירושלים, שמואל הנביא, שמואל הנביא, 1","latitude":31.7974497,"longitude":35.1478788},{"id":"707b88c4-6661-4e47-a10b-ed075a30d8c2","name":"יפה נוף","address":"ראשון לציון, אהרון וברוך, 1","latitude":31.974202799999997,"longitude":34.798491},{"id":"709e26c0-f4ac-4ebe-ba37-d527e4985fd0","name":"מגרש הספורט בן שמן","address":"חבל מודיעין, מושב בן שמן","latitude":31.953773199999993,"longitude":34.920545499999996},{"id":"70c755d4-665e-417a-a058-be83d52e7c1a","name":"מגרש רחוב אמסטרדם","address":"פתח תקווה","latitude":32.084041,"longitude":34.887761999999995},{"id":"70e6941c-4003-4b91-8643-3dcae072bff5","name":"מגרש כדורגל דיר חנא","address":"דיר חנא, שכ\u0027 מזרחית","latitude":32.8622818,"longitude":35.366226499999996},{"id":"71004e5b-3d68-43a5-a840-c17a4ffb5852","name":"מגרש ספורט משולב","address":"עין מאהל, שכונה מערבית","latitude":32.7234184,"longitude":35.3553423},{"id":"72164c73-f8e7-45a2-9cd5-fcc99abe6133","name":"מגרש מקורה","address":"קלנסווה","latitude":32.2854576,"longitude":34.9810942},{"id":"7279763c-4eff-40a4-aa90-9ddf59f39c7b","name":"מגרש משולב ליד הבריכה העירונית","address":"עפולה, עפולה עילית, דוד אלעזר","latitude":32.6328414,"longitude":35.325233},{"id":"7294b29b-0272-4215-aec3-bcee58158d65","name":"גן גבעת הפרחים","address":"תל אביב-יפו, וינשל, 9","latitude":32.1179147,"longitude":34.8230225},{"id":"72b7f4bc-5d59-4249-b761-fb6de35f80ff","name":"מגרש מושב בצרון","address":"באר טוביה, מרכז","latitude":31.734379599999997,"longitude":34.7244494},{"id":"72ed7564-4519-404b-b380-66bbe123c51e","name":"מגרש ביה\"ס ארזים","address":"יקנעם עילית, רמת יוקנעם, אלונים, 31","latitude":32.6484868,"longitude":35.096455299999995},{"id":"7305829e-b5d8-4903-9c6c-b42289aff087","name":"ישיבה תיכונית","address":"מודיעין-מכבים-רעות, בוכמן, ראובן, 4","latitude":31.890267,"longitude":35.010397},{"id":"73913c0d-a92c-47bc-b758-637b7ba925b2","name":"אופקים","address":"ראשון לציון, אביעזר ילין, 7","latitude":31.9652748,"longitude":34.8230193},{"id":"73aa15aa-181e-4ced-b7a9-d9abb35e7f65","name":"מגרש ינון","address":"באר טוביה, מרכז","latitude":31.734379599999997,"longitude":34.7244494},{"id":"7420e01e-ad92-45e5-8fec-a48e6db0bdcc","name":"מגרש כדורגל בית\"ר רמת גן","address":"רמת גן, אבא הלל, 299","latitude":32.1005909,"longitude":34.8244703},{"id":"74f43c8d-a4e3-4916-88db-7e2cfae48a56","name":"חט\"ב נווה יונתן","address":"רמלה, מבצע יונתן 7","latitude":31.925450299999998,"longitude":34.8559704},{"id":"752de596-1f49-4253-bae3-21ffa85f9a95","name":"מגרש מושב זרחיה","address":"שפיר, מושב עובדים, ליד בתי הכנסת והמועדון"},{"id":"755bfd9c-6f00-46cc-802e-47fa6c290ee3","name":"מגרש דרכא","address":"לוד, גני אביב, ארבע העונות","latitude":31.958657,"longitude":34.881769},{"id":"757bc5ab-279d-415a-ba18-44967327d987","name":"בית ספר בגין","address":"הוד השרון","latitude":32.149961,"longitude":34.8838788},{"id":"75cae662-e181-4337-9f87-cfa3b9e149d6","name":"רננות","address":"באר שבע, א, בזל","latitude":31.2487181,"longitude":34.7892461},{"id":"75dcdac7-e540-4195-b9f7-37f365d458a8","name":"מגרש משולב ליד ב\"ס תיכון","address":"שפרעם, עוסמאן","latitude":32.796544,"longitude":35.184585},{"id":"76393649-8d95-46f8-b216-c69a14b12855","name":"מגרש משולב","address":"שגב שלום, שכונה ב\u0027, ראשי","latitude":31.197117199999994,"longitude":34.8383843},{"id":"76693e94-1b78-45b1-9124-e28fb698d5cd","name":"מגרש משולב בית ספר ברטוב","address":"רעננה, אליעזר יפה, 14","latitude":32.1836981,"longitude":34.8759655},{"id":"76b21609-e5c2-44cd-8353-77ec1e5c0769","name":"בי\"ס מדעים","address":"אשקלון, נווה הדרים, ניסן פינת אל, 1","latitude":31.6727854,"longitude":34.5803733},{"id":"77317411-fefe-48db-adaa-e928b6223605","name":"גלגליות","address":"נתניה, מרכז העיר, המעפילים","latitude":32.333925,"longitude":34.851164},{"id":"7799c191-cb2d-4eda-b603-e427d7d6a2f5","name":"עדיני","address":"ראשון לציון, הרברט סמואל, 5","latitude":31.9618578,"longitude":34.8131544},{"id":"77b3d2bc-6ab7-4461-ab81-f11c29e519e4","name":"מגרש כדוריד","address":"חבל אילות","latitude":30.130876999999998,"longitude":34.9506625},{"id":"780e8bcb-9599-4304-8d4d-35d6ee76278b","name":"תיכון חט\"ב שיבלי","address":"שיבלי אום אלג\u0027נם, שבלי + אום אלגנם","latitude":32.684166999999995,"longitude":35.396944},{"id":"782d3606-bf14-4815-8d3d-45f9c265dcd5","name":"מגרש אבן חלדון","address":"טמרה, שכונת אבורומאן","latitude":32.8552512,"longitude":35.1859141},{"id":"7841f01d-8d46-4ebf-8dd7-32dfa115dfa3","name":"מגרש הספורט כפר טרומן","address":"חבל מודיעין, מושב כפר טרומן","latitude":31.980493,"longitude":34.927696},{"id":"78f4a586-472a-49cf-85c3-15a1cd6f43e8","name":"חט\"ב ב\u0027","address":"יפיע, שכונת מראח אלגוזלאן","latitude":32.68149090000001,"longitude":35.272859499999996},{"id":"792d6629-7655-4991-b818-1133cd1da765","name":"רמון","address":"רחובות, קרוננברג, 3","latitude":31.8786965,"longitude":34.8120689},{"id":"794a5330-4c44-451f-8aa5-767a514aad0e","name":"בי\"ס הפרדס","address":"אור יהודה, מרכז, מנחם בגין, 99","latitude":32.0248894,"longitude":34.8581982},{"id":"799e3fa2-dbfb-413f-b530-d2614e37c120","name":"מגרש החורש","address":"זכרון יעקב","latitude":32.5739532,"longitude":34.9520929},{"id":"79f1f426-024d-4434-9376-c00cd5fe6aab","name":"בה\"ס סיודי","address":"זמר, ימה","latitude":32.369406999999995,"longitude":35.030626999999996},{"id":"7a35dd0d-422f-4138-9a5d-96f548df3ea1","name":"מגרש משולב  -  פסגת זאב מזרח - בי\u0027\u0027ס ממ\u0027\u0027ד","address":"ירושלים, פסגת זאב, גרשון מאיר, 19","latitude":31.819205299999997,"longitude":35.244285},{"id":"7a7e5102-19bd-434f-877a-36164e49c799","name":"מגרש כדורגל ישובי","address":"גזר","latitude":31.859228899999998,"longitude":34.884486700000004},{"id":"7ad4e6ba-0147-413f-947d-0e3bef315d00","name":"ספורטק דרום משולב","address":"תל אביב-יפו, עזרא, תשרי, 87","latitude":32.044264,"longitude":34.790606},{"id":"7b4bbe34-4f39-4c33-8029-f0b119789359","name":"מגרש ביה\"ס פאול קור","address":"פתח תקווה","latitude":32.084041,"longitude":34.887761999999995},{"id":"7b8796c2-06a8-4411-9aa6-eede544185ff","name":"מגרש משולב","address":"אבו סנאן, מערבית","latitude":32.95803,"longitude":35.171969},{"id":"7bb66c46-b299-463c-bbfe-87615104b17c","name":"דפנה","address":"תל אביב-יפו, רח\u0027 דפנה, 11","latitude":32.079668999999996,"longitude":34.7920684},{"id":"7bc368b6-d4fd-4f22-a2b0-e4bf99c8a796","name":"מגרש משולב בי\"ס בן גוריון","address":"רמלה, דוד רזיאל","latitude":31.9219476,"longitude":34.860719},{"id":"7c152e90-947d-4d06-aca7-9308b6d0ebbd","name":"מגרש הספורט המשולב בכפר","address":"קדימה צורן, הכפר, הפלמ\"ח, 71","latitude":32.2831615,"longitude":34.909896499999995},{"id":"7c4277ec-f92d-42d6-a852-23c6b14c5eb4","name":"מגרש משולב מקיף אלבוכארי","address":"עראבה, ואדי טור, ואדי טור","latitude":32.8530087,"longitude":35.3361947},{"id":"7c56b317-1c19-41d7-9fc1-d3c3b7c1a344","name":"מגשר משולב פני קדם","address":"גוש עציון","latitude":31.668742199999997,"longitude":35.2368246},{"id":"7c9f5331-080f-4c6b-bd17-30bda4e81a0d","name":"קט רגל","address":"ערערה-בנגב, שכונה 5, ערערה בנגב","latitude":31.158117,"longitude":35.014919},{"id":"7cad2131-2172-4801-8e23-6a0ffcfaaaf2","name":"נווה דקלים","address":"ראשון לציון, נווה דקלים, 53","latitude":31.979912,"longitude":34.759388},{"id":"7cc67435-08cd-427d-a377-895f74d0a5e5","name":"מגרש המועצה","address":"להבים, שדרות תמר","latitude":31.373926,"longitude":34.812864},{"id":"7d01bca0-b394-4a65-8da9-ae8864ce995e","name":"דקל וילנאי חט\"ע","address":"מעלה אדומים, דרך מדבר יהודה, דרך מדבר יהודה","latitude":31.774451,"longitude":35.29634},{"id":"7d036811-eb37-4632-a6c7-b3abbfbea16e","name":"מגרש מושב תימורים","address":"באר טוביה, מרכז","latitude":31.734379599999997,"longitude":34.7244494},{"id":"7d70f57a-845b-4afa-a114-a60c6621ddec","name":"בי\"ס משותף מעגן מיכאל","address":"חוף הכרמל, קיבוץ מעגן מיכאל","latitude":32.55871,"longitude":34.917816},{"id":"7d817831-8273-43d3-b420-73205a1b7cbb","name":"מגרש מקיף","address":"חצור הגלילית","latitude":32.980382,"longitude":35.543548},{"id":"7daf7a74-863b-475f-87ca-9b790983c06a","name":"מעלה התורה- בנות","address":"מעלה אדומים, דרך הגיא, דרך הגיא","latitude":31.7782076,"longitude":35.301492},{"id":"7de271a0-4ce1-453e-ac33-4777adddc866","name":"מגרש משולב-ליד האיצטדיון","address":"כפר תבור, שכ\u0027 המייסדים, רח\u0027 המייסדים","latitude":32.6868687,"longitude":35.4216531},{"id":"7ebccf84-8c12-4d8b-bccd-0d4b763c31d7","name":"מגרש שכונתי - חטיבה","address":"קרית שמונה, הירדן, 29","latitude":33.205294099999996,"longitude":35.5763274},{"id":"7eedbfed-4290-4b2c-b085-c31ffe266391","name":"בן גוריון","address":"עכו, מזרח, גרשון יוסף, 445","latitude":32.9217479,"longitude":35.0952759},{"id":"7f0a0b37-a8bb-48c4-b99b-1c1988f7e279","name":"רמבם","address":"ראש העין","latitude":32.095838,"longitude":34.952177},{"id":"7f0af580-cdd5-4473-b337-6ce5af31cff8","name":"פארק גאולים","address":"באר שבע, שכ\u0027 ג\u0027, רחו גאולים","latitude":31.2487693,"longitude":34.8042464},{"id":"7f5c1798-ad83-4ab2-a18e-4237be9a2b8c","name":"מגרש שש שנתי גולדה","address":"פתח תקווה","latitude":32.084041,"longitude":34.887761999999995},{"id":"7fcfeda9-0e99-4bdd-b94b-e074490aa542","name":"מגרש משולב","address":"פוריידיס, שכונת שיכון","latitude":32.602362,"longitude":34.953784999999996},{"id":"7fdec6f8-7e73-44ba-9900-486be1fd0cfc","name":"מגרש משולב","address":"דרום השרון","latitude":32.1643989,"longitude":34.9286096},{"id":"806c9311-eecd-40fe-ab23-4595ef43f755","name":"משולב","address":"ערערה","latitude":32.496323,"longitude":35.097291999999996},{"id":"806fbcd1-8b6a-4151-b5a0-dc9de61b6141","name":"מגרש מקורה - יסודי ג","address":"אעבלין, צפונית - מזרחית, בי\"ס יסודי -ג","latitude":32.824142,"longitude":35.193962},{"id":"80768e48-e103-487d-86d1-1c2deac248fe","name":"מגרש ספורט בי\u0027\u0027ס עתידים","address":"אור עקיבא, אורות, מיכאל גלפשטיין","latitude":32.5018865,"longitude":34.9197352},{"id":"80cda046-c1f1-44c5-844d-f104239f0476","name":"עמית אורגד","address":"נתניה, מרכז צפון, שרת, 21","latitude":32.339114699999996,"longitude":34.8627318},{"id":"81293e5d-0dbd-4f39-bf49-b98478e04a42","name":"מגרש משולב מזאריב","address":"זרזיר, מזראיב, מזארייב","latitude":32.714981,"longitude":35.22462},{"id":"81741f5d-3dcf-4f1b-a15b-1e1168c6cc7a","name":"מגרש משולב בסעד","address":"שדות נגב","latitude":31.41676,"longitude":34.5400381},{"id":"82c2649e-672d-4809-9c8f-3840cfcb81a5","name":"מגרש משולב וישיי","address":"מגדל העמק","latitude":32.677811399999996,"longitude":35.2417497},{"id":"833cd4ff-d28f-47e6-a8bf-6b10e3e30a93","name":"מגרש משולב","address":"חוף השרון","latitude":32.218524699999996,"longitude":34.8652735},{"id":"83914ff0-b0b8-48e6-8008-e4e6fceee0b2","name":"מגרש משולב מיצר","address":"גולן","latitude":33.015585400000006,"longitude":35.784354},{"id":"83a34767-7664-4a99-9ce5-9ea23193d2f1","name":"מגרש משולב ביה\"ס אלומות","address":"עפולה, עפולה עילית, יצחק שדה","latitude":32.6328414,"longitude":35.325233},{"id":"8433a945-4e0e-45b8-abe5-81e788b9f6c5","name":"בי\"ס אלזהראא","address":"קלנסווה, מערבי, יסודי אלזהראא","latitude":32.263734,"longitude":35.0042449},{"id":"8457bb88-f29a-44ce-abf9-7a8b4d7afcb2","name":"גן עיר שמש","address":"תל אביב-יפו, עיר שמש 42, 42","latitude":32.1244807,"longitude":34.828264499999996},{"id":"84a113c4-a94d-4c7e-b6c1-553c747a8c57","name":"מגרש משולב מבואות הנגב","address":"בני שמעון","latitude":31.3927762,"longitude":34.8403408},{"id":"84c5040e-271e-4f03-97a4-3d4ce82f4a1c","name":"נווה עוז","address":"ראשון לציון, מרים, 4","latitude":31.979151400000003,"longitude":34.796681899999996},{"id":"84e5ae39-ab4e-4117-a4dd-2d11ea1e4d12","name":"ביה\"ס עתידים","address":"הוד השרון, יאנוש קורצ\u0027אק","latitude":32.1619226,"longitude":34.9078227},{"id":"84ef9850-7908-40f2-b94a-aa50506960e2","name":"ישיבת בני עקיבא","address":"נתניה, נאות גנים, גד מכלוף, 4","latitude":32.31214,"longitude":34.8856596},{"id":"85700301-3a68-45d4-b40e-75d11007dffd","name":"ביה\"ס קריית האומנים","address":"רמלה, עפרה חזה","latitude":31.9171187,"longitude":34.8716779},{"id":"8571b49a-16d6-4189-9375-400569abead4","name":"מגדל שמס","address":"מג\u0027דל שמס, מערבי","latitude":33.2690961,"longitude":35.772121999999996},{"id":"85a16f1c-098c-46b0-baef-1070f6c107b8","name":"מגרש אלכוארזמי","address":"טמרה, שכונה עליונה","latitude":32.851441,"longitude":35.210184},{"id":"85a76b39-97b5-4811-9a4a-b344045308b2","name":"מקיף ב\u0027","address":"אשדוד, רובע ב\u0027, מורדי הגטאות","latitude":31.805497,"longitude":34.658573},{"id":"8626cba3-2b18-4ad4-9ea9-5f11c83628a7","name":"קרית חינוך","address":"תל מונד, הדקל, 50","latitude":32.2526764,"longitude":34.918769},{"id":"86283ed5-4bb5-47c9-b01e-0071308d5ea3","name":"מגרש משולב דיר חנא","address":"דיר חנא, שכ\u0027 מזרחית","latitude":32.8622818,"longitude":35.366226499999996},{"id":"862ca6a3-21bc-4c5c-a31a-c3d798bbf3ea","name":"מגרש משולב מקיף י\"א","address":"אשדוד, רובע י\"ז, שוהם, 1","latitude":31.7662372,"longitude":34.6301231},{"id":"86f0a7b3-8125-4fe5-98e7-359afad905ca","name":"בית יצחק","address":"עמק חפר, בית יצחק","latitude":32.3333417,"longitude":34.8899779},{"id":"8728a94b-588c-447f-8ea4-6c45fc8b1b24","name":"מתנ\"ס נאות שושנים","address":"חולון, נאות שושנים, גאולים, 54","latitude":32.0135668,"longitude":34.7832485},{"id":"87b2bae2-6227-4b91-ba45-90e897424bc2","name":"מגרש משולב עמי אסף","address":"דרום השרון","latitude":32.1643989,"longitude":34.9286096},{"id":"87ebc43a-2f32-40c8-9e64-9b536b9388f6","name":"מגרש אלון לשעבר","address":"דימונה, כובשי אילת, באבא סאלי","latitude":31.0604827,"longitude":35.0323262},{"id":"87f0ec5c-376b-4ea0-8ab2-d5d93d42c7ea","name":"משולב רבין","address":"שוהם, טללים, בשמת","latitude":32.0077232,"longitude":34.9465176},{"id":"8874d7b3-e73b-4d8c-9087-92691f3dd398","name":"בי\"ס מחט","address":"טבריה, קק\"ל","latitude":32.7857037,"longitude":35.5254688},{"id":"8888b005-7203-403b-ac9b-168c6b6d289b","name":"מקיף ו\u0027","address":"באר שבע, ט\u0027, בית אל","latitude":31.2467322,"longitude":34.7739568},{"id":"888ee58e-3308-4c67-bcd3-3e27fa2bd0ef","name":"מגרש משולב רחוב מיכה","address":"קרית גת, מיכה, 2","latitude":31.615052300000002,"longitude":34.7589505},{"id":"88afdabf-bd3b-4f05-8f19-ced03720866c","name":"מגרש משולב - ביה\"ס פסגת זאב גרנות","address":"ירושלים, פסגת זאב, פלוגת הטנקים","latitude":31.8311112,"longitude":35.241774},{"id":"88d1a9d4-7735-435c-931c-f53ca94d51f7","name":"שובו","address":"רחובות, דוד אלעזר, 11","latitude":31.893406600000002,"longitude":34.7756006},{"id":"891442ad-63a0-4f9d-84f7-9381f5b699ba","name":"פארק טאגור","address":"תל אביב-יפו, רח\u0027 טאגור, 26","latitude":32.1157374,"longitude":34.7969284},{"id":"89499b37-8f82-4e08-9734-c64e2ab26c05","name":"מגרשי ספורט פארק רעננה","address":"רעננה","latitude":32.1923797,"longitude":34.8745337},{"id":"894c15d4-5885-4c16-976c-bab847ae378b","name":"אמירים תל\"י","address":"באר שבע, ו\u0027 הישנה, קלאוזנר","latitude":31.2521018,"longitude":34.7867691},{"id":"895d11f0-4361-4261-811b-e9ab8a83e6a5","name":"מגרש משולב-הרצוג","address":"מזכרת בתיה","latitude":31.850638,"longitude":34.840016},{"id":"8a32f459-3345-40e7-95ab-58c59392d893","name":"מתנ\"ס נווה יהודה","address":"רחובות, אהרונוביץ, 14","latitude":31.9016179,"longitude":34.800928299999995},{"id":"8a61554c-2241-4ce0-81ec-f335ec5fdcaa","name":"משולב","address":"אל קסום"},{"id":"8a6a2d42-39c6-4e5d-a84f-d9ccc5558056","name":"מגרש משולב","address":"אבו סנאן, כרם אלרגמה","latitude":32.95803,"longitude":35.171969},{"id":"8a81bec3-8e01-46d1-9e2e-7585a171476b","name":"מגרש משולב  -  נווה עציון - בי\u0027\u0027ס ממ\u0027\u0027ד לבנות","address":"ירושלים, בית וגן, שדרות נוה יעקב, 4","latitude":31.838618000000004,"longitude":35.239022999999996},{"id":"8a98ef67-a693-4304-93f0-f2dce19d16ce","name":"משולב נווה צוף","address":"מטה בנימין","latitude":31.948595499999996,"longitude":35.1708741},{"id":"8aa16bb4-fe48-4ada-a833-7255b41cd4dd","name":"מגרש משולב יסודי מרכז","address":"אבו גוש, מרכז, מחמוד רשיד, 1","latitude":31.808789599999994,"longitude":35.1083324},{"id":"8aba5e2d-07aa-4f3c-b32a-e52b3361ab22","name":"משולב גבים","address":"שער הנגב","latitude":31.507725699999995,"longitude":34.6303372},{"id":"8ac22330-79ba-4f30-a758-147a40a806da","name":"מגרש אורות","address":"באר טוביה, מרכז","latitude":31.734379599999997,"longitude":34.7244494},{"id":"8b2a19ff-ad82-40b8-8e29-66ba14a2faa5","name":"מגרש כדורגל","address":"דרום השרון","latitude":32.1643989,"longitude":34.9286096},{"id":"8bce0cd8-3336-4bf1-859e-52986f20bf07","name":"יסוד המעלה","address":"ראשון לציון, צמח, 7","latitude":31.970049999999997,"longitude":34.7945027},{"id":"8c0abc0a-676d-46cc-9b2a-9944f65a8666","name":"משולב מצפה יריחו","address":"מטה בנימין","latitude":31.948595499999996,"longitude":35.1708741},{"id":"8c80a2e4-6b32-42a5-85d1-ffcb4d9bdd75","name":"בי\"ס אילנות","address":"חיפה, הסנה, 8","latitude":32.812372499999995,"longitude":34.9694633},{"id":"8c9800bd-e25a-4ed5-b3e4-be502e4e123e","name":"קט רגל ממשית","address":"דימונה, ממשית, קיסריה","latitude":31.0573938,"longitude":35.0378889},{"id":"8d2cf886-8206-4552-972d-030aae854d5d","name":"בי\"ס נאות שושנים","address":"חולון, נאות שושנים, התחיה, 18","latitude":32.0150685,"longitude":34.7817106},{"id":"8d8af86b-2c3e-4a1d-b3c3-e42dc8db6210","name":"מקיף ט\u0027","address":"אשדוד, רובע י\u0027ב, אב","latitude":31.779673999999996,"longitude":34.637449},{"id":"8e342de2-4554-4dd2-81de-574ea40b8454","name":"מגרש ספורט משולב -סלע","address":"חדרה, סלע, יחיעם","latitude":32.4407098,"longitude":34.9044036},{"id":"8e3acaa0-5f2e-409d-8f85-ca330bba792e","name":"חצבה","address":"הערבה התיכונה","latitude":30.6574776,"longitude":35.2367899},{"id":"8e3ebfef-ee0b-4b26-aff7-45727fb8baac","name":"מגרש משולב שוהם","address":"מגדל העמק, מרכז, שוהם","latitude":32.677811399999996,"longitude":35.2417497},{"id":"8e669b91-0eb4-4b89-a720-e6b201aa2403","name":"רב תכליתי","address":"בית שאן, גן הפיל, שכונת אליהו","latitude":32.4924473,"longitude":35.4971907},{"id":"8e7c5d2b-fcdd-47be-b060-56f816496980","name":"בי\"ס גורדון","address":"חולון, החייל, 16","latitude":32.0180655,"longitude":34.7706369},{"id":"8eb13469-e9a5-4752-b533-509d6c65a79b","name":"בי\"ס אחוזה-זכרון יוסף","address":"חיפה, אחוזה, שד\u0027 סיני, 13","latitude":32.7878884,"longitude":34.9873133},{"id":"8eb4c415-41d4-4478-8e99-56d898cabf56","name":"מגרש בי\"ס חט\"ב אלחלאן","address":"סח\u0027נין, שכונת אלחלאן","latitude":32.8643371,"longitude":35.2838681},{"id":"8ebcbcb7-bae0-493d-95be-78899b83f798","name":"מגרש גאולים","address":"אשדוד, רובע א\u0027, השיטה","latitude":31.806186,"longitude":34.642275},{"id":"8f0e0595-809b-40dd-816c-2ec9f9d99bc9","name":"בני דרום","address":"חבל יבנה, ד.נ.אבטח","latitude":31.856,"longitude":34.760999999999996},{"id":"8f385325-535c-4761-b61d-223401f0d452","name":"שז\u0027ר","address":"אשדוד, רובע ה\u0027, שלום שבזי","latitude":31.7991959,"longitude":34.64757},{"id":"8f3ac244-95c3-46ec-8c2e-0eb29c3871d1","name":"מגרש כפר אום אל קטף","address":"מנשה","latitude":32.4581336,"longitude":35.027799},{"id":"8ffe7159-df51-4c3d-bb5b-6f3d697228d0","name":"מגרש ספורט משולב -שכ \u0027 יוספטל","address":"חדרה, יוספטל, חטיבת גולני","latitude":32.4329758,"longitude":34.9340704},{"id":"905b866d-c22e-449b-87bd-f7dc0987cde0","name":"הראל","address":"אשדוד, רובע ו\u0027, אברהם שפירא","latitude":31.7928356,"longitude":34.6590295},{"id":"90c06049-61e4-47d0-b78a-0059ad92c003","name":"בני דרור מגרש משולב","address":"לב השרון","latitude":32.27582460000001,"longitude":34.949138399999995},{"id":"90d93e06-b2fe-414a-8202-1401f7798a8b","name":"חטיבת הביינים","address":"גבעת זאב, מרכז הישוב, התאנה, 4","latitude":31.8642984,"longitude":35.165348099999996},{"id":"90e50d09-d75b-47b6-8f21-d4c3c36c44a7","name":"מתנ\"ס שוויץ","address":"רחובות, חיים סירני, 52","latitude":31.9004061,"longitude":34.8199944},{"id":"90f77315-e3ab-4c2b-bc57-c5a103f017c7","name":"חט\"ב אורט בנים","address":"טבריה, השקד","latitude":32.7869271,"longitude":35.5209634},{"id":"9125e966-7ae6-4b3f-984d-9f13921ff616","name":"מקיף ב דתי","address":"ראשון לציון, הרצל, 132","latitude":31.955874999999995,"longitude":34.8019102},{"id":"9139ff87-2684-4b92-a018-62382500272f","name":"מגרש ספורט משולב מקורה","address":"ג\u0027סר א-זרקא, מערבית, דרך הים","latitude":32.536262,"longitude":34.911569},{"id":"914700e2-0a02-471b-abfb-377829002ff1","name":"שכ\u0027 היובל","address":"רחובות, היובל, שד\u0027 ירושלים","latitude":31.8943652,"longitude":34.811529199999995},{"id":"9151debc-c940-477a-8e54-0fddc355bd5c","name":"פארק הנוער","address":"מעלה אדומים, קרית חינוך, פארק הנוער","latitude":31.772251400000002,"longitude":35.2962834},{"id":"9154d13a-0f06-41c2-b134-f380bf480fce","name":"מגרש ספורט משולב בביה\"ס רמז","address":"נהריה, עמידר, רח\u0027 ביאילק, 6","latitude":33.021434600000006,"longitude":35.0963042},{"id":"91974665-3e26-4ac8-a495-6fb9dfc0a5fb","name":"בי\"ס יד אליהו מגרש קט רגל","address":"טבריה, נבות הכרמלי","latitude":32.795859,"longitude":35.530972999999996},{"id":"91d69eb6-3396-4708-b92d-0b221adc95f9","name":"מגרש כדורגל שהם","address":"שוהם, הדסים, מודיעים","latitude":31.988915,"longitude":34.93931},{"id":"926c6273-a7bf-464a-bd12-004578367e63","name":"מגרש משולב נוה עובד","address":"עמק הירדן","latitude":32.726807799999996,"longitude":35.554842199999996},{"id":"92be5fde-f451-41d6-9fe0-cac688a6f65d","name":"מגרש משולב מכוש","address":"כרמיאל, מכוש","latitude":32.900369999999995,"longitude":35.290793},{"id":"92e2770c-3646-49f2-bc58-0b53cb40c69b","name":"משולב רבין","address":"נתניה, קריית רבין, הזמיר, 8","latitude":32.304001299999996,"longitude":34.8821618},{"id":"92f6c5b0-2f14-4119-8941-015177625515","name":"מגרש משולב בית הספר שקד","address":"רעננה, משה סנה, 21","latitude":32.194156,"longitude":34.8495085},{"id":"9321b5c0-fb5d-4307-99fd-4793cc924f3f","name":"מגרש משולב-בורג","address":"מזכרת בתיה, מוטה גור, 10","latitude":31.851772999999998,"longitude":34.8403662},{"id":"938aaf36-a212-4065-94a9-e9b5f0abf923","name":"מגרש משולב פטיש","address":"מרחבים","latitude":31.3138394,"longitude":34.5749882},{"id":"93c4315a-d6a7-4477-8e4a-44e35feb8bd0","name":"מגרש שקד","address":"אשדוד, רובע י\u0027ג, רחבעם המלך","latitude":31.779073,"longitude":34.642873},{"id":"93fb6b28-b1b1-43a7-bfdf-3f0c6c79bc84","name":"עירוני ב\u0027","address":"מודיעין-מכבים-רעות, ספדיה, עמק יזראל","latitude":31.897887,"longitude":35.0169088},{"id":"9410c434-ef36-4897-936d-14d99bc071cb","name":"מקיף א\u0027","address":"אשדוד, רובע ב\u0027, מורדי הגטאות","latitude":31.805497,"longitude":34.658573},{"id":"94faf87c-b3d8-4488-8bea-41b2f511c188","name":"אמי\"ת","address":"מעלה אדומים, נופי סלע, דרך קדם","latitude":31.7787171,"longitude":35.316229},{"id":"951019c1-ae73-417d-8f04-627d8aa3b732","name":"מרכז ספורט","address":"חורה, קריית חינוך מג 928, קרית ספורט רחוב אלסלאם","latitude":32.002841000000004,"longitude":34.75756500000001},{"id":"9552a4de-67c7-42bb-87fd-99b55b50ec44","name":"מגרש פתוח בליך","address":"רמת גן, המאה ואחד, 24","latitude":32.0559873,"longitude":34.817979699999995},{"id":"95973ad2-868b-472f-9a0d-cc77d2c8be63","name":"רבין","address":"כפר סבא, החיש, 9","latitude":32.184716200000004,"longitude":34.9120366},{"id":"95b05ffa-e376-4b9c-93ed-b80f7d2aa042","name":"מקיף ז\u0027","address":"באר שבע, רמות","latitude":31.273348000000002,"longitude":34.811319999999995},{"id":"95b3fe26-0430-4d72-8d50-ecb32a8f840f","name":"מקיף רבין","address":"באר שבע, יי\"א, מרדכי נמיר","latitude":31.2601201,"longitude":34.7669741},{"id":"95d1185a-14ce-4242-94aa-32a62bb4a901","name":"צמח השדה","address":"מעלה אדומים, צמח השדה, הכרכום","latitude":31.7702657,"longitude":35.3071563},{"id":"95f941ce-3c47-4d07-87f0-3ccf0160735b","name":"חפץ חיים","address":"ראשון לציון, ירושלים, 5","latitude":31.962107399999997,"longitude":34.808422},{"id":"96173043-a691-45bd-9179-4bf632c25409","name":"מגרש קטרגל משולב נועם אליהו","address":"נתיבות","latitude":31.423132,"longitude":34.5946466},{"id":"963364c3-00fc-416a-8293-b614598dafde","name":"מגרש משולב מוסמוס","address":"מעלה עירון, מזרחית, מוסמוס","latitude":32.5456836,"longitude":35.155975399999996},{"id":"9668c65a-38e1-4c05-8045-358e103a6d24","name":"מגרש ספורט משולב","address":"קדימה צורן, הרב אברהם אביקסיס, 14","latitude":32.2746079,"longitude":34.9125002},{"id":"970e3063-2d14-4435-9409-9fe88681a980","name":"משולב ניצנים","address":"שוהם, מ\"ד, צורן","latitude":31.994091200000003,"longitude":34.9463162},{"id":"9714e635-91ad-4b00-bf47-82c01cef6497","name":"מעלה התורה- בנים","address":"מעלה אדומים, דרך הגיא, דרך הגיא","latitude":31.7782076,"longitude":35.301492},{"id":"972ed3dd-b267-491b-afed-c6bfb5116b74","name":"מקיף א\u0027","address":"באר שבע, ג\u0027, דרך השלום, 15","latitude":31.2520769,"longitude":34.8002896},{"id":"973d672a-5f4b-46f4-9fbd-d7f8e916de16","name":"נווה רבין","address":"אור יהודה, נוה רבין, צפריר","latitude":32.0277411,"longitude":34.8703659},{"id":"97a79ef7-7254-4bf4-9684-4e7f2766ea7a","name":"תיכון אלנור","address":"ערערה-בנגב, שכונה 8, ערערה בנגב, 900","latitude":31.149590000000003,"longitude":35.005829},{"id":"97d76e84-6b08-447e-8a6a-be42ccf48871","name":"מגרש משולב רמז","address":"יהוד, סירקין, סירקין, 8","latitude":32.0329633,"longitude":34.8948834},{"id":"97d7cb44-933c-492f-ac12-dc0b56dcb257","name":"מגרש משולב","address":"כאבול, שכונה צפונית","latitude":32.870011399999996,"longitude":35.2071305},{"id":"98013d49-0b70-4fb7-9b63-8c4d2e3ba093","name":"בי\"ס אלון","address":"חיפה, יגאל אלון, 8","latitude":32.776944799999995,"longitude":35.012140200000005},{"id":"9861b474-4ed2-4901-965d-cc9a749ae603","name":"חב\"ד בנים מגרש מערבי","address":"רחובות, שטיינברג, 10","latitude":31.891549,"longitude":34.8214781},{"id":"987f1b94-7cd7-4bae-bbc9-ee47469ed736","name":"מגרש משולב מנור","address":"גן יבנה, בית ספר אהוד מנור","latitude":31.7907344,"longitude":34.7057772},{"id":"988f27f7-19c2-4b27-9301-9f2252887483","name":"מגרש משולב בית הלל","address":"מבואות החרמון","latitude":33.0614193,"longitude":35.554842199999996},{"id":"98a579ef-6e5b-4f57-b535-14048f0e67a5","name":"בי\"ס תיכון כסיפה","address":"כסיפה, 18, 902א","latitude":31.2413957,"longitude":35.094704199999995},{"id":"98b53424-f3b6-4667-a575-23cff04ebef7","name":"מגרש הספורט רינתייה","address":"חבל מודיעין, מושב רינתייה","latitude":32.044365,"longitude":34.928477},{"id":"98e8f89f-2979-44ae-aaf9-017a2b6a8efa","name":"מגרש סל-עף","address":"גוש עציון","latitude":31.668742199999997,"longitude":35.2368246},{"id":"9903cb5f-7cf0-4408-ab34-59c053ecfb88","name":"מגרש משולב ניצן","address":"חוף אשקלון","latitude":31.621438100000002,"longitude":34.619270199999995},{"id":"99111ae7-b900-430b-a70b-25a0c5ef2bf2","name":"מגרש ספורט משולב אום אלשתוויה","address":"אעבלין, מערבית -, כניסה מערבית ראשונה - ליד תחנת דלק גד","latitude":32.8213416,"longitude":35.195795},{"id":"999409ce-5353-4573-ad8b-dd3ef410761d","name":"דבורה עומר","address":"נתניה, קרית השרון, תאשור, 2","latitude":32.2981318,"longitude":34.876194399999996},{"id":"99cf7c55-a043-4ba6-b693-0c64d8c2f23c","name":"מגרש משולב","address":"בענה","latitude":32.929538,"longitude":35.271916999999995},{"id":"9a3c35d2-ca82-4c43-b58a-ded013ac3279","name":"בי\"ס אחמדיה","address":"חיפה, אלמהאדי, 12","latitude":32.8058105,"longitude":34.971439499999995},{"id":"9a6ab00a-304e-4e60-9215-5374e43d3d2a","name":"מגרש משולב אילניה","address":"הגליל התחתון","latitude":32.7461638,"longitude":35.502837899999996},{"id":"9b1caad0-5f63-4726-8b92-6b3662d2f96b","name":"מגרש כדורגל","address":"גזר","latitude":31.859228899999998,"longitude":34.884486700000004},{"id":"9b5b8280-2fdf-4c93-a213-3ffa37efba55","name":"מגרש ביה\"ס תדהר","address":"יקנעם עילית, רמת יוקנעם, בנטל, 3","latitude":32.6385921,"longitude":35.0912101},{"id":"9bd1f6dd-68dc-4d8c-9e2b-38a02dddf1cd","name":"מגרש ספורט אחיסמך","address":"חבל מודיעין, מושב אחיסמך","latitude":31.931905999999998,"longitude":34.908576},{"id":"9c2b3637-faae-4f64-86ef-bfa3a1e746b1","name":"מגרש ספורט - מצפה קדומים","address":"קדומים","latitude":32.21239,"longitude":35.157388},{"id":"9c30ee96-f0a3-47ce-8ac0-a4731bbca0a8","name":"אלגזאלי","address":"באקה אל גרביה, חרבה","latitude":32.419305,"longitude":35.035289},{"id":"9c3a341b-1c4e-4aff-a14a-d0870453718b","name":"מגרש תיכון","address":"ערד, לבאות, יאשיהו, 4","latitude":31.262635600000003,"longitude":35.2151614},{"id":"9cb43341-962b-4ef3-a075-66e2eff94531","name":"מגרש בית ספר מכבים","address":"גן יבנה","latitude":31.783602799999997,"longitude":34.703177},{"id":"9cd67f19-567c-4d51-8fde-7a4704beff45","name":"מגרש משולב מכללה למנהל","address":"אשדוד, רובע ב\u0027, ז\u0027בוטנסיקי","latitude":31.809601,"longitude":34.654477},{"id":"9d08a38d-e409-44bd-93a9-2774226f95ba","name":"מגרש ביה\"ס אורנים","address":"יקנעם עילית, שכונה ותיקה, לילך, 3","latitude":32.660225,"longitude":35.104606},{"id":"9d0fcdd3-2130-4064-96cf-4b99aa33a922","name":"מגרש משולב בבן נון","address":"שדרות, יהושע בן נון, 3","latitude":31.5345329,"longitude":34.5924039},{"id":"9d2894d3-8f7f-4eb9-9932-62a30194f5bc","name":"מגרש משולב","address":"בסמ\"ה, ברטעה","latitude":32.475079,"longitude":35.085653},{"id":"9dda4218-5c4b-4d97-aa0e-16a971764901","name":"מגרש ספורט משולב - ברנדס","address":"חדרה, ברנדס, הברוש","latitude":32.4209316,"longitude":34.9183797},{"id":"9ddb1976-a4e3-475e-9fe0-046b3ba14662","name":"מגרש מושב נוה מבטח","address":"באר טוביה, מרכז","latitude":31.734379599999997,"longitude":34.7244494},{"id":"9e0b2343-5236-4f7b-bd6f-fccc50015aa7","name":"חורשת טשרנא","address":"תל אביב-יפו, רח\u0027 טשרנא","latitude":32.0534851,"longitude":34.7683989},{"id":"9e341fbf-77d4-4ec0-8f04-7589e0a52593","name":"מגרש משולב פארק רבין","address":"מגדל העמק, דרומי, נחל צבי","latitude":32.683763,"longitude":35.242428},{"id":"9e90883f-94c0-407f-bfce-b174305fbf8c","name":"בי\"ס ארלוזרוב","address":"אשקלון, שמשון, הבעל שם טוב, 11","latitude":31.6687885,"longitude":34.5742523},{"id":"9f1ef4a9-ad8a-4e64-9244-168d4861ee2f","name":"בי\"ס פרקאוף","address":"אור יהודה, גיורא, יקותיאל אדם, 17","latitude":32.0320106,"longitude":34.862379},{"id":"9f687180-3278-407f-9d5f-ad271fe54b0f","name":"בי\"ס אחווה","address":"חיפה, קיסריה, 20","latitude":32.8158739,"longitude":34.994979},{"id":"9f6aa1fe-132b-4a3a-8a90-8d3c8f537d2c","name":"בית ג\u0027רפי","address":"אשקלון, מגדל, צה\"ל","latitude":31.6628794,"longitude":34.5938216},{"id":"9fa1a42c-ee55-46df-9a49-9b8216bb77e5","name":"מגרש ספורט משולב רמת אמיר","address":"קדימה צורן, שדרות יצחק רבין צורן","latitude":32.2926161,"longitude":34.9361322},{"id":"9fbfbe1f-248d-40c3-906a-e3e56c242244","name":"אצטדיון כדורגל סינטטי","address":"אשקלון, אפרידר, קיבוץ גלויות, 1","latitude":31.6637058,"longitude":34.5670259},{"id":"a02d2763-93f7-44b2-b031-c58745aca0fe","name":"מגרש משולב - בי\"ס אורט קנדי","address":"ירושלים, מקור חיים, מקור חיים, 1","latitude":31.7583506,"longitude":35.2147547},{"id":"a0a3262a-b1cd-4c7d-b880-40d9e41e9d66","name":"צה\"ל 16","address":"חיפה, קריית אליעזר, צה\"ל, 16","latitude":32.825023699999996,"longitude":34.981086999999995},{"id":"a173f9d6-7e54-4111-99ff-fdbc78602cd7","name":"גבעת עדן","address":"זכרון יעקב, גבעת עדן, כלנית, 11","latitude":32.5875225,"longitude":34.950353299999996},{"id":"a1c78ff9-46dd-41ab-83e4-5bf10c13cd77","name":"מגרש סל-עף","address":"גוש עציון","latitude":31.668742199999997,"longitude":35.2368246},{"id":"a1e1ba04-5cc9-4baa-bbd1-0ab0e3d55711","name":"מגרש משולב יסודי א","address":"כפר כנא, אזור המעיין, לא מזוהה","latitude":32.750474,"longitude":35.3400398},{"id":"a215b2b8-cdb2-4fe4-bff8-461d70a56737","name":"מעון יהודי ערבי","address":"תל אביב-יפו, יפת 256, יפו","latitude":32.033170999999996,"longitude":34.744322},{"id":"a3020f56-dfe6-4d7b-9fdb-99eaad6b8d89","name":"מגרש משולב אלטבקה","address":"כפר קאסם, כניסה מערבית, עבד אלכרים קאסם","latitude":32.1155595,"longitude":34.9639289},{"id":"a377c5ac-0cd8-42a6-a132-eef4b30f0646","name":"מגרש מעגלים","address":"שדות נגב","latitude":31.41676,"longitude":34.5400381},{"id":"a409410a-8b7b-4841-b124-215c13a63401","name":"מגרש חוץ ארגמן","address":"נס ציונה, משה לרר","latitude":31.9295112,"longitude":34.787445},{"id":"a4a66af5-979e-493b-afce-2d766d85f4a4","name":"מגרש הכדורגל העירוני","address":"יפיע, חורשת מגדל העמק","latitude":32.695001999999995,"longitude":35.28201},{"id":"a545e013-2ac8-4dd3-9c72-36940e68c8f3","name":"מגרש משולב - בי\"ס אפרתה","address":"ירושלים, תלפיות, יהודה, 13","latitude":31.7569414,"longitude":35.2197838},{"id":"a5462be4-6110-437b-8b83-4a7c2692cd5a","name":"אביחי","address":"נתניה, קרית השרון, שדרות טום לנטוס, 31","latitude":32.3047454,"longitude":34.8699559},{"id":"a557d213-69e1-4d16-bb4b-9a1411c6e582","name":"חופית","address":"ראשון לציון, חיל צנחנים, 5","latitude":31.9947375,"longitude":34.7413342},{"id":"a5c12f12-f446-4f2f-b744-555e50bf0a8b","name":"מגרש משולב מגדל","address":"מגדל, נוף ארבל","latitude":32.8391551,"longitude":35.5041839},{"id":"a640ea20-73a2-4533-8547-44249f588803","name":"מגרש משולב","address":"גני תקווה","latitude":32.060497,"longitude":34.873121},{"id":"a67443a5-3494-461e-8ee0-59753d865bbd","name":"מגרש תיכון באר טוביה","address":"באר טוביה, קרית חינוך","latitude":31.734379599999997,"longitude":34.7244494},{"id":"a6d6bdf9-4bf0-42fd-b38a-dc8e2eb1a810","name":"מקיף ג העמית","address":"ראשון לציון, המתנדבים, 6","latitude":31.9703399,"longitude":34.7928883},{"id":"a71bbc9b-e3f7-460d-903a-1ab6ec39ed0f","name":"מגרש הספורט בית נחמיה","address":"חבל מודיעין, מושב בית נחמיה","latitude":31.977141999999997,"longitude":34.953835},{"id":"a73c1aac-42fb-43fd-95e2-7a2d97823323","name":"מגרש משולב  -  מוריה - מרכז דתי טכנולוגי","address":"ירושלים, מרכז העיר, מלכי ישראל, 36","latitude":31.7907835,"longitude":35.2117773},{"id":"a77c759d-57ee-4ff6-8834-cc4d9e2f0c73","name":"מגרש כדורגל איזורי","address":"גזר","latitude":31.859228899999998,"longitude":34.884486700000004},{"id":"a86f9f92-8531-468a-a79f-3af644e232f2","name":"מגרש קטרגל","address":"אל-בטוף, ב\"ס","latitude":32.7913922,"longitude":35.3287927},{"id":"a893d106-708f-481b-8e3c-7bd0de21fec8","name":"מגרש ממשולב","address":"כאבול, שכונה מערבית","latitude":32.870011399999996,"longitude":35.2071305},{"id":"a89c7743-4e56-4651-b5b8-2a95cda95944","name":"טובא זנגריה","address":"טובא-זנגריה, עלי סלאמה","latitude":32.96621,"longitude":35.592017999999996},{"id":"a9589dbf-bcc8-4e8e-af72-e30e56050dab","name":"ספורטק","address":"רעננה, הנשיאים פינת וייצמן","latitude":32.192358999999996,"longitude":34.863478},{"id":"a9cbd205-5d80-4749-9da1-240e760c2762","name":"ביה\"ס השבעה","address":"אזור, ויצמן, השבעה, 1","latitude":32.0245041,"longitude":34.8058575},{"id":"a9fa9892-5f33-4443-a494-e68cc34b64a6","name":"מגרש כדורגל ג\u0027ת","address":"ג\u0027ת","latitude":32.397285,"longitude":35.034889},{"id":"aa134b26-5c77-4c8a-82a6-8008266680c0","name":"מגרש הבונים","address":"בת ים, מרכז העסקים, אורט ישראל, 7","latitude":32.0133599,"longitude":34.7495306},{"id":"aa4490de-ee3e-4844-b5ae-944fb95baa01","name":"לבנה - שני","address":"הר חברון","latitude":31.4174932,"longitude":35.0828588},{"id":"aa6898c3-20b0-48da-8957-f179a8e22c69","name":"חט\"ב ארן","address":"חולון","latitude":32.0180655,"longitude":34.7706369},{"id":"aab96344-56d8-4111-811b-c8f7f77fddda","name":"מגרש משולב  -  גן בטקין לוינגר","address":"ירושלים, בקעה, גדעון, 1","latitude":31.759515500000003,"longitude":35.221416999999995},{"id":"ab0f0a1d-c179-46fc-8193-aa347760351f","name":"ביה\"ס השחר","address":"הוד השרון, הוד השרון, השחר, 34","latitude":32.1509585,"longitude":34.8925352},{"id":"ab11e0c2-a715-4ccc-90ac-326819692802","name":"רב תכליתי","address":"בית שאן, אלי כהן, אלי כהן","latitude":32.497102999999996,"longitude":35.497336},{"id":"ab200dc6-3aaf-4afa-90e5-ba4a91980b9d","name":"מקיף רגר","address":"באר שבע, נווה זאב, נפתלי הרץ אימבר","latitude":31.2349205,"longitude":34.7797781},{"id":"ab298e21-218a-4cfc-88ef-a44d47f8a132","name":"אלונים","address":"אשדוד, רובע י\u0027, יצחק ורדימון","latitude":31.78122,"longitude":34.647287},{"id":"ab439314-59a5-4738-b9ee-bc6dc58917c0","name":"מגרש קטרגל שכונת ס\"ח","address":"לוד, שכונת ס\"ח","latitude":31.951014,"longitude":34.888075},{"id":"ab82ace5-d001-4dca-aded-52098c2637c6","name":"מגרש משולב בטחה","address":"מרחבים","latitude":31.3138394,"longitude":34.5749882},{"id":"ac057274-1848-4f0d-ba4d-75d4d399eea0","name":"פארק קדרון","address":"תל אביב-יפו, קדם, 153","latitude":32.0374384,"longitude":34.7467002},{"id":"ac7c1153-13dd-4604-b172-4693786fd115","name":"מגרש כדורגל- יקום","address":"חוף השרון","latitude":32.218524699999996,"longitude":34.8652735},{"id":"ace3467e-f234-422a-bba7-372529b362f0","name":"מגרש משולב נין","address":"בוסתאן אל מרג\u0027, כניסה לכפר","latitude":32.6311651,"longitude":35.3548545},{"id":"ad439ca2-280e-4256-b5f6-06a52a7a373c","name":"שכ\u0027 קרית משה","address":"רחובות, קרית משה, גבריאלוב, 20","latitude":31.887061600000003,"longitude":34.7857099},{"id":"ad5d14c9-aca0-4b05-a584-e4dc6b8810c8","name":"מגרש כדורגל -ביתר","address":"ירושלים, בית וגן, בית וגן, 1","latitude":31.7974497,"longitude":35.1478788},{"id":"ad622885-a06c-439d-85ed-3baf18ee7f25","name":"מגרש משולב חט\"ב מערבי בועינה נוג\u0027ידאת","address":"בועיינה-נוג\u0027ידאת","latitude":32.804420799999995,"longitude":35.3650625},{"id":"ad8c839f-6709-4f1f-9d7c-f682abb742aa","name":"דביר","address":"אשדוד, רובע ט\u0027, ראש פינה","latitude":31.7839901,"longitude":34.6600248},{"id":"ad9b31de-b419-474e-8a95-20853ddac147","name":"ביה\"ס רבין","address":"הוד השרון, פשוש","latitude":32.140985,"longitude":34.889064},{"id":"ad9c0ed0-b191-46ec-8bf1-524eadd34668","name":"מגרש משולב עליזה בגין","address":"מגדל העמק, צפון, ביה\"ס עליזה בגין","latitude":32.674792,"longitude":35.250659399999996},{"id":"ae7def50-b3dd-400d-b404-b5d4b52703e4","name":"מגרש מושב אמונים","address":"באר טוביה, מרכז","latitude":31.734379599999997,"longitude":34.7244494},{"id":"aecf109b-9ba3-4521-bab2-d6db78ec7d59","name":"מגרש קט-רגל ב\"ס תיכון","address":"אכסאל, דרומית, 90, 6","latitude":32.6821176,"longitude":35.3229703},{"id":"af1d2dd2-6e32-414b-a685-cb7627903ebb","name":"מגרש אליאב","address":"לכיש","latitude":31.5615742,"longitude":34.8429273},{"id":"af395e84-343b-425e-889e-2227934fd97f","name":"צמח השדה","address":"מעלה אדומים, צמח השדה, הצפצפה","latitude":31.768075,"longitude":35.3008496},{"id":"afccda9a-ddaa-4203-8aa0-a282b153b7e6","name":"מגרש משולב עזריקם","address":"באר טוביה, מושב עזריקם","latitude":31.751695,"longitude":34.694818},{"id":"aff0eb11-22ad-48a6-9546-e4d30e772833","name":"מגרש כדורגל","address":"דרום השרון","latitude":32.1643989,"longitude":34.9286096},{"id":"b047a9b8-db60-4443-a2cd-77192fe72609","name":"מגרש משולב - ביה\"ס אורט רמות","address":"ירושלים, רמות אלון, רקנטי אברהם, 29","latitude":31.817582899999998,"longitude":35.189724999999996},{"id":"b0b4f9ce-61c1-443e-835a-eabfb8a234bb","name":"בראשית","address":"ראש העין","latitude":32.095838,"longitude":34.952177},{"id":"b0c6891e-ef7c-42db-94d3-a011a7f2865e","name":"טביב","address":"ראשון לציון, גרישפן, 8","latitude":31.9561244,"longitude":34.8147492},{"id":"b1254dbf-376a-4ab3-9c29-9f0a9baf2b19","name":"מגרש משולב פארק אשדוד ים","address":"אשדוד, רובע המרינה, שדרות משה דיין - אקסודוס","latitude":31.7893985,"longitude":34.6293861},{"id":"b15c1ab6-6842-4f31-b9ba-c5fe30ed4877","name":"חביב","address":"ראשון לציון, אחד העם, 11","latitude":31.963312600000002,"longitude":34.8076429},{"id":"b183dd8d-083d-46e3-acf6-5e1fdc004dfd","name":"מגרש כפר מייסר","address":"מנשה","latitude":32.4581336,"longitude":35.027799},{"id":"b18efca6-1a1e-4d30-ab35-27c8f06e30f4","name":"מגרש מקורה אלמותנבי","address":"אום אל-פחם, אלח\u0027לאיל","latitude":32.516731,"longitude":35.15857},{"id":"b1bfb5d4-e4c6-44e9-bf6a-d75457674adc","name":"גבעת התמרים","address":"עכו, מזרח, שלום הגליל, 20","latitude":32.9178853,"longitude":35.0917866},{"id":"b23951bc-815b-4a63-ac10-8f8e6aa64d26","name":"מגרש משולב ישובי","address":"גזר","latitude":31.859228899999998,"longitude":34.884486700000004},{"id":"b248bfe1-ec68-409b-92d4-8268ff144ec8","name":"מגרש ספורט משולב - נחלת אסתר","address":"קדומים","latitude":32.21239,"longitude":35.157388},{"id":"b2b31f02-8fe6-4ad7-8081-3c638fcacd79","name":"צמח א\u0027","address":"אשדוד, רובע ח\u0027, הצבעוני","latitude":31.7890327,"longitude":34.6496463},{"id":"b3549b02-c777-49cf-847a-55f66b42a2ce","name":"מגרש משולב חטיבת אלון","address":"רעננה, החייל, 46","latitude":32.1923797,"longitude":34.8745337},{"id":"b375ee42-e7e3-4fe5-818b-433aa80251fc","name":"אלביאן","address":"תל שבע, 14, אלביאן","latitude":31.244089000000002,"longitude":34.863386999999996},{"id":"b3a1ebbc-b02c-4f91-a7de-5d529fc81740","name":"רב תכליתי","address":"בית שאן, רמב\u0027\u0027ם, רמב\u0027\u0027ם","latitude":32.501328,"longitude":35.489964},{"id":"b3b20af2-5ed2-440e-89c2-16d0c08e0682","name":"גן כרונינגן, יפו","address":"תל אביב-יפו, התחיה, 10","latitude":32.0505449,"longitude":34.7611207},{"id":"b3b60dd6-2679-4bd0-90d8-cb4457b104d5","name":"מגרש משולב בי\"ס מגשימים","address":"רמלה, הפועל, 12","latitude":31.931566,"longitude":34.872938},{"id":"b3e9511b-d07a-4076-a140-a138bc1487c1","name":"מגרש ספורט משולב - דיונה","address":"אשכול","latitude":31.206808400000003,"longitude":34.4641848},{"id":"b53d82da-fc0c-4e32-9bca-af6708957fcb","name":"ויתקין","address":"ראשון לציון, סילבר, 21","latitude":31.959081299999994,"longitude":34.8020886},{"id":"b587f9c8-45bb-4657-9b58-eb67fda2ba04","name":"גן הרצפלד","address":"תל אביב-יפו, הטייסים, 124","latitude":32.046163199999995,"longitude":34.8131896},{"id":"b59e074f-fdb0-42b4-8784-59809b0cd8e4","name":"מגרש בי\"ס מורשה","address":"פתח תקווה","latitude":32.084041,"longitude":34.887761999999995},{"id":"b5c03200-615e-4c1b-9d12-482b4ab3e06c","name":"גן גלקסברג","address":"תל אביב-יפו, לוחמי גליפולי 15","latitude":32.056297,"longitude":34.7942265},{"id":"b5f1bfee-53af-407c-880a-4e63f902df2d","name":"טובא זנגריה","address":"טובא-זנגריה, מרכז","latitude":32.96621,"longitude":35.592017999999996},{"id":"b63b4a4a-92d1-4c5a-8f3c-636ce7b954cc","name":"בי\"ס אל כארמה","address":"חיפה, הגפן, 15","latitude":32.8168866,"longitude":34.989762299999995},{"id":"b69c478a-4788-414c-9cc7-b3135d3359ef","name":"מגרש בה\"ס אלפסי","address":"דימונה, יגאל אלון, פרחי ארצינו","latitude":31.0637467,"longitude":35.0374809},{"id":"b6b16778-101c-4d1d-9ebf-1809a824077c","name":"מגרש סגולה","address":"יואב","latitude":31.673140799999995,"longitude":34.8403408},{"id":"b7070984-8073-4007-8bd8-09b1f2135614","name":"ממ\"ג","address":"מעלה אדומים, דרך הגיא, דרך הגיא","latitude":31.7782076,"longitude":35.301492},{"id":"b70d76db-804b-4cbd-ab13-a5f1057415ec","name":"מגרש ישיבת הסדר","address":"דימונה, שבעת המינים, האורן","latitude":31.0659449,"longitude":35.0299275},{"id":"b793c3d2-4e57-4ad4-b7eb-84a0f57489ee","name":"ינשוף","address":"באר שבע","latitude":31.2521018,"longitude":34.7867691},{"id":"b7fd3d6e-9095-42fe-b716-bfd2422ee269","name":"מגרש משולב ישובי","address":"גזר","latitude":31.859228899999998,"longitude":34.884486700000004},{"id":"b7fd82a8-8f0a-4608-9295-09f65e856ba2","name":"מגרש אביגדור","address":"באר טוביה, מרכז","latitude":31.734379599999997,"longitude":34.7244494},{"id":"b8ad0f29-8b83-4c86-a757-397346228306","name":"הורדים","address":"קרית שמונה, הוורדים, כלנית, 15","latitude":33.2175361,"longitude":35.5814467},{"id":"b8ec5d4b-42fc-4f00-902f-2214847538d4","name":"בי\"ס אבן חלדון","address":"סח\u0027נין","latitude":32.8621403,"longitude":35.2996234},{"id":"b8f21e61-b598-49af-8a5e-5ce20d0baf23","name":"מגרש משולב  -  פסגת זאב מרכז ב\u0027 -בי\u0027\u0027ס","address":"ירושלים, פסגת זאב, השישה עשר, 32","latitude":31.828649799999994,"longitude":35.2453132},{"id":"b903ac5d-7734-4abd-9830-d1b2be0efdb9","name":"חטיבה דתית","address":"אשדוד, רובע י\u0027א, נחל שניר","latitude":31.7813255,"longitude":34.6337333},{"id":"b94f78e0-684f-4a5c-bc51-8f146c8f6b9e","name":"אשכול","address":"אשדוד, רובע ט\u0027, פתח תקווה","latitude":31.7839304,"longitude":34.66192},{"id":"b997da2f-e27b-485c-8f3b-0f76b8762d4d","name":"פרחי המדע","address":"רחובות, יובל נאמן, 106","latitude":31.9048138,"longitude":34.8242721},{"id":"ba256985-8fba-49a0-a0dc-f169b96d443f","name":"בית גיורא","address":"כפר סבא, דוד המלך, 40","latitude":32.1813749,"longitude":34.942352},{"id":"ba3856ac-bb5b-4975-aec6-e644be4e7a7f","name":"מגרש הבריכה","address":"שדרות, טיילת הספורט, הארזים, 4","latitude":31.520947900000003,"longitude":34.600074299999996},{"id":"ba4c8594-5a91-4369-8a19-f8b67e4531aa","name":"מגרש משולב","address":"ראש פינה, דרך השלום","latitude":32.9656964,"longitude":35.5445357},{"id":"ba6015e9-8696-4055-93ee-8782b8e361a5","name":"קוסובסקי","address":"תל אביב-יפו, קוסובסקי, 6","latitude":32.0968843,"longitude":34.7950148},{"id":"ba83898e-b4e2-4ab8-bb9e-b86df20cfb3a","name":"מגרש כדורגל קיבוץ קליה","address":"מגילות ים המלח, קיבוץ קליה, בצמידות לבית הספר היסודי","latitude":31.749896,"longitude":35.466131},{"id":"ba83f939-b09e-4602-8d90-3700c1e1e673","name":"רב תכליתי","address":"בית שאן, נוף הגלבוע, נוף הגלבוע","latitude":32.495985,"longitude":35.491192},{"id":"bb18dca0-24ac-4de1-a27b-78839af7fd6e","name":"מגרש השקמים","address":"הוד השרון","latitude":32.149961,"longitude":34.8838788},{"id":"bb453401-10b5-4076-ba1b-d7dba0d17ad7","name":"מגרש משולב יסודי ב\u0027","address":"דאלית אל כרמל, מזרחית, מס\u0027 2","latitude":32.693481399999996,"longitude":35.0470183},{"id":"bbadaeac-483a-42b1-8897-c48d08b8576d","name":"חיצוני יובל","address":"ראש העין, דרך מנחם בגין","latitude":32.0976057,"longitude":34.9628866},{"id":"bbbd1320-d630-4c2e-a0ab-70d573c7e002","name":"אחרון הבילויים","address":"ראשון לציון, הבריגדה, 10","latitude":31.970319899999996,"longitude":34.792163599999995},{"id":"bc9e8634-d615-45ab-9630-1620ab86a484","name":"מגרש ספורט משולב ברקת","address":"חבל מודיעין","latitude":31.9759381,"longitude":34.953838399999995},{"id":"bca240d4-bc83-4b86-84e8-47d7c7fd2937","name":"מגרש בי\"ס אמי\"ת אלירז","address":"פתח תקווה","latitude":32.084041,"longitude":34.887761999999995},{"id":"bd187aa6-2cb0-4303-adfa-395d195c4496","name":"מגרש משולב - בי\"ס בית צפפה","address":"ירושלים, בית צפאפא, בית צפאפא דרום, 1","latitude":31.7460743,"longitude":35.2005014},{"id":"bd454876-e388-4a07-8142-2b764cfe6ff3","name":"אשכול","address":"ראש העין","latitude":32.095838,"longitude":34.952177},{"id":"bd4f1363-45d8-49eb-b619-da30aed9dd78","name":"מגרש חוץ- בן יהודה","address":"נס ציונה, דוד אלעזר","latitude":31.9285458,"longitude":34.811325},{"id":"bdf4f547-2415-42c0-a410-baab781a66a2","name":"מגרש רמון","address":"באר יעקב, גני מנחם, שלמה בן יוסף","latitude":31.9410929,"longitude":34.8365875},{"id":"be6a562a-0cf4-4a62-a4cf-827edc5468e0","name":"מגרש משולב בית ספר השרון","address":"רעננה, הס, 5","latitude":32.174447400000005,"longitude":34.8733891},{"id":"bee0b1d5-d5f4-4a0c-8efa-c8bb4c1e56d4","name":"מגרש משולב שכונתי","address":"חורה, שכונה 8, אבו חאמד אלע\u0027זאלי, 500","latitude":31.303335,"longitude":34.922239999999995},{"id":"bf07f5b5-3837-46e2-a17a-e9e224016990","name":"מגרש משולב","address":"כפר כמא, במתחם המתנ\"ס","latitude":32.721472999999996,"longitude":35.439461699999995},{"id":"bf21a8ee-8bc3-4ad6-9040-ed09d2e7e367","name":"מגרש ספורט משולב צורן","address":"קדימה צורן, שדרות יצחק רבין צורן, 1","latitude":32.2926161,"longitude":34.9361322},{"id":"bfb7ad6f-f3c3-44a3-89f3-102e7da6e26e","name":"בי\"ס דינור","address":"חיפה, נו\"ש, קליבנוב, 20","latitude":32.792868,"longitude":35.0102884},{"id":"c02fe62a-f68d-48f0-8916-30d7dabc9ef7","name":"אמפי אליכין","address":"אליכין","latitude":32.407658999999995,"longitude":34.925028},{"id":"c13160cf-a3f7-4e20-bd05-c447a44ac4a2","name":"בי\"ס חט\"ב","address":"זרזיר, בי\"ס חט\"ב, ראשי זרזיר","latitude":32.818464299999995,"longitude":35.1870729},{"id":"c135d6cb-c796-4382-aa84-4ccfbb926ced","name":"מגרש משולב אלונים","address":"כפר תבור, שכ\u0027 האלונים, רח\u0027 האלונים","latitude":32.692718,"longitude":35.416291},{"id":"c193ce06-787a-43b7-9b53-930461a90fa4","name":"מגרש ביה\"ס הדסים","address":"יקנעם עילית, רמת יוקנעם, שדרות רבין, 15","latitude":32.6462584,"longitude":35.0941413},{"id":"c1daba72-8e7b-4a3f-8214-18abaa7a6faf","name":"מגרש משולב קשת","address":"הגליל התחתון","latitude":32.7461638,"longitude":35.502837899999996},{"id":"c2198815-c142-4074-9f44-fb1799c55e0b","name":"עירוני א","address":"מודיעין-מכבים-רעות, פרחים, דם המכבים, 2","latitude":31.908271000000003,"longitude":35.0076026},{"id":"c2215c5d-a485-43ea-af78-4ecb748062b7","name":"גן סירני","address":"תל אביב-יפו, מעפילי אגוז 75","latitude":32.054377699999996,"longitude":34.808788299999996},{"id":"c2e6cb8d-0768-46ba-afbb-6178ed2774a8","name":"מגרש הספורט גימזו","address":"חבל מודיעין, מושב גימזו","latitude":31.927217,"longitude":34.941128},{"id":"c2fe6aad-bca3-4cf9-b63e-d8817b84d843","name":"מגרשי מקיף אלבטוף עראבה","address":"עראבה, אלברקה, ראשי עראבה","latitude":32.8530087,"longitude":35.3361947},{"id":"c34b6c47-ab51-48b4-bf0d-33e821abd21c","name":"מגרש העלייה","address":"רחובות, העלייה","latitude":31.8827605,"longitude":34.8041514},{"id":"c3a1a6af-21f5-48fe-b4a0-58ac09224d9d","name":"מגרש הספורט בטירת יהודה","address":"חבל מודיעין, מושב טירת יהודה","latitude":32.014832999999996,"longitude":34.935877999999995},{"id":"c3a99366-aee7-4cd3-abe5-8ef25b3857e8","name":"משולב ארז","address":"שער הנגב","latitude":31.507725699999995,"longitude":34.6303372},{"id":"c3bae9a7-bec3-46ff-86f3-86403a77f5aa","name":"מגרש הספורט גינתון","address":"חבל מודיעין, מושב גינתון","latitude":31.962801,"longitude":34.913062},{"id":"c3c4a7f6-09a8-48ed-bb6f-8e91905f9aa3","name":"מגרש משולב","address":"בסמת טבעון, שכונת חילף, חילף, 1","latitude":32.747123,"longitude":35.148373},{"id":"c58b4c69-5b49-4a9d-9881-8a1d1bca5f37","name":"תל שבע ע\"ש אלאעסם זעל","address":"תל שבע, אזור ספורט, איזור ספורט","latitude":31.245073099999995,"longitude":34.8603822},{"id":"c60bf46b-7708-4a06-a6f5-cee772b5af54","name":"משולב","address":"אל קסום"},{"id":"c655385b-04bf-4057-b400-25cfebac183a","name":"מגרש משולב פתוח","address":"שדות דן","latitude":31.9826199,"longitude":34.856898199999996},{"id":"c6e70cce-0bea-4c49-ae9d-9053ead772fc","name":"מגרש תיכון מאיר \"צומח\" קט רגל","address":"קרית גת, צה\"ל, העפלה, 1","latitude":31.607069,"longitude":34.753792},{"id":"c6f015f7-91cb-47b7-b498-e173cbe2e644","name":"בית צ\u0027ארנה","address":"חיפה, קריית חיים, שד\u0027 דגניה, 48","latitude":32.831891299999995,"longitude":35.0549398},{"id":"c6fb1002-2289-4928-b050-5a611f10c736","name":"מגרש משולב גבעת אבני","address":"הגליל התחתון","latitude":32.7461638,"longitude":35.502837899999996},{"id":"c730148e-f532-4105-9f01-39c99da602da","name":"מגרש משולב כפר סילבר","address":"חוף אשקלון, ד.נ. חוף אשקלון","latitude":31.621438100000002,"longitude":34.619270199999995},{"id":"c740c609-ccd4-458b-8366-53e87cff44e5","name":"מגרש פתוח באמפיפארק","address":"בני עייש, מנחם בגין","latitude":31.789418,"longitude":34.758371},{"id":"c7722800-9db3-4df9-8e23-32e3c1fea61d","name":"איתמר(תכנון סופי)","address":"ראשון לציון, מבצע שלמה, 39","latitude":31.985069,"longitude":34.7790405},{"id":"c77ebbc0-e76c-4cca-8cd0-54ec99688304","name":"מגרש משולב פסגות","address":"מגדל העמק, מרכז, ביה\"ס פסגות","latitude":32.6766463,"longitude":35.239748},{"id":"c783bd67-7402-4260-8ca1-7bd8a523603d","name":"צפרירים חולון - נוער","address":"חולון, מרכז, ההסתדרות","latitude":32.017207,"longitude":34.778644},{"id":"c789f6b3-c8ae-4761-b809-3f83f635c305","name":"מגרש קהילתי","address":"בית דגן, הבנים, 5","latitude":32.0022294,"longitude":34.833354},{"id":"c88f1441-6955-464f-aa8d-51e001100600","name":"מגרש משולב בית רימון","address":"הגליל התחתון","latitude":32.7461638,"longitude":35.502837899999996},{"id":"c891ab9d-1c3a-47fe-8587-c282d37e299e","name":"מגרש בה\"ס אורט","address":"לוד, אהרון בן חמו","latitude":31.9406442,"longitude":34.8818705},{"id":"c89b84a1-2c5f-4236-a4f7-aff6fa7a2fec","name":"מגרש משולב בי\"ס נופרים","address":"טבריה, מורדות, רח\u0027 תמר","latitude":32.788289,"longitude":35.5205765},{"id":"c8b2dc90-9f1b-4fba-a082-aef67ab0e9a5","name":"משולב רוחמה","address":"שער הנגב","latitude":31.507725699999995,"longitude":34.6303372},{"id":"c8e81096-5a7e-4e13-894e-db03e3040ce8","name":"מגרש כדורגל","address":"גזר","latitude":31.859228899999998,"longitude":34.884486700000004},{"id":"c91cc868-639e-4836-9523-67ea75f712da","name":"בי\"ס גורדון א\"ד","address":"חיפה, קריית חיים, זלמן ארן, 43","latitude":32.833506,"longitude":35.0596422},{"id":"ca2b2183-a85a-4b29-bb4e-3cbaf97576b8","name":"מגרש משולב קרית חינוך","address":"בוקעתא, דרומית","latitude":33.2026572,"longitude":35.7767723},{"id":"ca41580b-eadf-4597-95b8-1afac2e8a7d0","name":"אבן סינא א","address":"טייבה","latitude":32.266840699999996,"longitude":35.009654499999996},{"id":"ca644c03-8fac-4c57-82b2-c4044f10f065","name":"קט רגל העצמאות","address":"קרית גת","latitude":31.6104718,"longitude":34.7722948},{"id":"ca863b9b-3fe8-4244-b5b7-249eea764a11","name":"מגרש משולב תיכון ד\"ר השאם אבו רומי","address":"טמרה, כניסה ראשית"},{"id":"cb3a8a26-e386-494b-8df7-ee25dbd2ca83","name":"תיכון מדעים","address":"קלנסווה","latitude":32.2854576,"longitude":34.9810942},{"id":"cb58766a-38a0-4690-9089-4e7904d3602b","name":"מושב ירדנה","address":"עמק המעיינות","latitude":32.4583073,"longitude":35.500099899999995},{"id":"cb67e8a4-4dab-4e8c-b673-6bf90d8341df","name":"מגרש משולב  -  הרטמן - בי\u0027\u0027ס","address":"ירושלים, קטמון הישנה, קליין שמואל, 7","latitude":31.761,"longitude":35.207},{"id":"cbc1d9c3-4d14-4bed-b66b-7a45df1114c8","name":"מגרש משולב","address":"שדרות, משה רבנו, 120","latitude":31.5345115,"longitude":34.585318199999996},{"id":"cbca06d6-b4e4-4b5f-900f-93232cba33c3","name":"ביה\"ס ממלכתי א\u0027","address":"הוד השרון, בן גמלא, 28","latitude":32.1580687,"longitude":34.8957322},{"id":"cc9549d4-52c5-4d0d-96b8-32870ab6230d","name":"קריית מנחם צפוני","address":"רמלה, יאיר שטרן, 35","latitude":31.936335999999994,"longitude":34.877609199999995},{"id":"cc97611c-d057-4e4f-8fa3-21a4cc37004a","name":"יד שטרית מגרש ציבורי","address":"טבריה, ברוריה","latitude":32.7959438,"longitude":35.5309396},{"id":"ccae7dd9-2f13-488d-8c9b-2aef234ab551","name":"מגרש משולב חטיבת ביניים","address":"ביר אל-מכסור","latitude":32.7781997,"longitude":35.2216895},{"id":"cccb815a-f996-4d80-9af4-db04a2fbe1f5","name":"הבונים","address":"חוף הכרמל, מושב שיתופי הבונים","latitude":32.636586,"longitude":34.932704},{"id":"cceede71-f024-4c6a-89d5-f49ca7128fcc","name":"מגרש כדורגל","address":"כפר כמא, בצד הדרומי של הכפר","latitude":32.721472999999996,"longitude":35.439461699999995},{"id":"cd17dcfc-f831-4d47-9d47-f65d41ecd870","name":"ביס אורות עציון בנות","address":"גוש עציון","latitude":31.668742199999997,"longitude":35.2368246},{"id":"cd471f7d-1c6f-4db9-b19f-f2f24a220f69","name":"יסודי אום אלגנם","address":"שיבלי אום אלג\u0027נם, שבלי + אום אלגנם","latitude":32.684166999999995,"longitude":35.396944},{"id":"cdb15e91-2bb9-4c74-85a3-3d28927e78f6","name":"מגרש משולב","address":"בסמת טבעון, שכונת זבידאת, זבידאת, 1","latitude":32.7357729,"longitude":35.1396827},{"id":"ce274bd9-10af-4cc5-8288-89a6cc19498d","name":"ביה\"ס נוה נאמן","address":"הוד השרון, אלכסנדר הגדול, 12","latitude":32.139734,"longitude":34.8995749},{"id":"ce30c617-404e-451c-aa45-9790dae41c5d","name":"מגרש כדור רגל","address":"ע\u0027ג\u0027ר, כניסה ליישוב","latitude":33.272607,"longitude":35.623636999999995},{"id":"ce8db399-4f25-4914-958d-b7acad519c84","name":"מגרש סל-עף","address":"גוש עציון","latitude":31.668742199999997,"longitude":35.2368246},{"id":"cf59e6ce-88f0-40ef-b66f-f2475ef6844a","name":"מגרש גת","address":"יואב","latitude":31.673140799999995,"longitude":34.8403408},{"id":"cfcea24f-d5be-45f7-9e5d-0c25f704643c","name":"מגרש מושב תלמי יחיאל","address":"באר טוביה, מרכז","latitude":31.734379599999997,"longitude":34.7244494},{"id":"d0673535-c9cd-4986-ab19-1ef3b52d2b7b","name":"תיכון מור","address":"מודיעין-מכבים-רעות, רעות, ברקת, 40","latitude":31.90912,"longitude":35.002462},{"id":"d0a3651a-b8e3-493d-ae93-e81fd8098ef4","name":"גבע כרמל","address":"חוף הכרמל, מושב גבע כרמל","latitude":32.662163,"longitude":34.954077999999996},{"id":"d0bcb62c-ac25-4b91-a8a3-425e00218964","name":"מגרש ביה\"ס פיק\"א","address":"פתח תקווה","latitude":32.084041,"longitude":34.887761999999995},{"id":"d0e7471b-7b59-46a3-842e-95c5f12068a6","name":"פארק לב העיר","address":"ראש העין, וולפסון","latitude":32.096404,"longitude":34.947328},{"id":"d13d4d3e-1666-4814-a3d0-7e0906ab32f4","name":"מגרש משולב","address":"יקנעם עילית, שכונה ותיקה ע.שושו, הגיבורים","latitude":32.6568608,"longitude":35.1070743},{"id":"d1704a98-d19e-4d4e-987e-e12ed3ebb4ab","name":"מגרש משולב בי\"ס יסודי זרזיר","address":"זרזיר, בהייב, בי\"ס יסודי מרכזי זרזיר","latitude":32.729778,"longitude":35.22868},{"id":"d19f9ea5-78cf-420e-a5b4-45995642af42","name":"משולב רש\"י","address":"נתניה, קרית נורדאו, אריה לייב יפה","latitude":32.282489,"longitude":34.847074},{"id":"d1b87f32-a3f3-4814-9b07-fd3691bcf9df","name":"צרופה","address":"חוף הכרמל, מושב צרופה","latitude":32.647822,"longitude":34.946455},{"id":"d1c16e76-5bab-485c-8cc8-456f963a7b51","name":"ניצנים","address":"ראשון לציון, ויניק, 39","latitude":31.9575712,"longitude":34.7928667},{"id":"d24af31d-a742-4fab-b9af-2e2b5fc7e55b","name":"תיכון יפיע","address":"יפיע, שכונת בתי-הספר","latitude":32.695001999999995,"longitude":35.28201},{"id":"d27c61c8-ad42-4904-88ab-e6b17da94b02","name":"מגרש משולב","address":"טירת כרמל, שרת, שרת","latitude":32.762127,"longitude":34.97298},{"id":"d2962bfd-9c5f-4a22-a04c-2d3a0d76bb38","name":"מגרש משולב","address":"טייבה, בית ספר אלחכמא, דרום מזרח","latitude":32.266840699999996,"longitude":35.009654499999996},{"id":"d2dfa8a3-48a2-4ca8-8fd3-f05920f340a6","name":"מגרש כדורגל","address":"דרום השרון","latitude":32.1643989,"longitude":34.9286096},{"id":"d2e6e158-0c07-41ef-9264-c812fe447b8c","name":"יפה נוף","address":"מודיעין-מכבים-רעות, רעות, ערבי נחל, 51","latitude":31.893246099999995,"longitude":35.0192139},{"id":"d3ae2186-9da4-4800-8cb3-a466ac2959d4","name":"מגרש משולב שיכון ותיקים","address":"טבריה, שיכון וותיקים, רח\u0027 גולני","latitude":32.7922207,"longitude":35.538612},{"id":"d432343d-8abc-4c84-899b-09066c53910a","name":"קט רגל","address":"ערערה-בנגב, שכונה 1 ליד בי\"ס אבו עראר, ערערה בנגב","latitude":31.163312800000003,"longitude":35.0350353},{"id":"d4701b3b-2129-4dc2-8dda-f2af4cdffa53","name":"קט רגל","address":"ערערה-בנגב, שכונה 2 ג, ערערה בנגב","latitude":31.165746999999996,"longitude":35.032973999999996},{"id":"d530bb58-2360-45a4-9b49-053b2b8a877d","name":"מגרש משולב","address":"מרום הגליל","latitude":32.9916546,"longitude":35.467236799999995},{"id":"d59d487e-ca44-4f33-ba02-911ca07cf638","name":"מגרש משולב מכינה","address":"שפיר, ישוב קהילתי, במתחם בתי הספר","latitude":31.697841,"longitude":34.728135},{"id":"d5aa8bb9-27d1-43a6-95ea-f12d60e3ac2c","name":"מגרש משולב שכונה מערבית מכמאן","address":"ביר אל-מכסור, מקמאן מערב","latitude":32.7781997,"longitude":35.2216895},{"id":"d64bf209-4cd5-4f99-a22b-ea8f79b449e9","name":"מגרש כדורגל","address":"דרום השרון","latitude":32.1643989,"longitude":34.9286096},{"id":"d6c41d2b-5eb7-417a-9001-7b538b367e9e","name":"מגרש ספורט משולב","address":"גוש עציון","latitude":31.668742199999997,"longitude":35.2368246},{"id":"d6d5474e-2a06-42bb-b86c-ba06f04f4db4","name":"מאיר","address":"באר שבע, ו\u0027 החדשה, מבצע עובדה, 116","latitude":31.263644600000003,"longitude":34.774177},{"id":"d6e90d88-c3d6-4a6d-9177-f2fa7bd33ccb","name":"מגדים","address":"חוף הכרמל, מושב מגדים","latitude":32.7266265,"longitude":34.962100299999996},{"id":"d7227d65-8bab-4d19-9e59-108549eaaa2a","name":"מגרש חדש אבן שמואל","address":"שפיר","latitude":31.697841,"longitude":34.728135},{"id":"d7a033a3-cb15-4a2b-ae50-ab5569affb37","name":"מגרש משולב","address":"יבנה, נווה אילן, השומרון","latitude":31.875102,"longitude":34.724346},{"id":"d7ba798a-047f-4446-bece-3d712fdcef39","name":"משולב אבני החושן","address":"שוהם, יעלים, מכבים","latitude":31.995052,"longitude":34.94776},{"id":"d8185725-843c-43c1-a084-a15d62a8f5b9","name":"מגרש משולב","address":"יסוד המעלה, מזח","latitude":33.0572698,"longitude":35.6165089},{"id":"d835134b-9f88-41aa-8364-85ee0f9c3726","name":"נוף ים","address":"אשדוד, רובע י\u0027א, הר כנען","latitude":31.7798362,"longitude":34.6304945},{"id":"d84ead4a-4650-4df9-9c91-3f61b047e8b3","name":"מגרש משולב בפארק","address":"פרדסיה, הדר השרון, שגיא, 1","latitude":32.3125463,"longitude":34.9103072},{"id":"d856b50f-c58d-455f-b28b-f3e587c3722d","name":"שובו מגרש משולב","address":"נתניה, נאות גנים, שח\"ל, 17","latitude":32.3112481,"longitude":34.8859628},{"id":"d878c04d-b1b1-4b61-95a1-5dd6850fd73c","name":"מגרש סל-עף","address":"גוש עציון","latitude":31.668742199999997,"longitude":35.2368246},{"id":"d9ec9a8a-18bb-47a5-8ba1-d581ecc2e1d1","name":"מגרש חב\"ד יוספטל לשעבר","address":"דימונה, גיורא יוספטל, עזרא ונחמיה","latitude":31.065342,"longitude":35.0358827},{"id":"da2c29bc-f4e7-4989-88ff-7846bd76ba62","name":"נתיבי עם","address":"באר שבע, ט\u0027, שד\u0027 ירושלים","latitude":31.246733,"longitude":34.77151500000001},{"id":"da43cbb9-8a2a-4bfc-adb1-042fb3ca2a59","name":"מגרש משולב אלבסליה","address":"שפרעם, אלבסליה","latitude":32.803580499999995,"longitude":35.1732997},{"id":"da4a20db-aeed-49c6-8b88-0c8597e5a0d1","name":"רננים","address":"ראשון לציון, החלמונית, 6","latitude":31.974518,"longitude":34.7851548},{"id":"da646ddc-985f-4825-beab-989ef60ce3a9","name":"מגרש משולב במגינים","address":"שדרות, המגינים, 17","latitude":32.817746899999996,"longitude":34.9987171},{"id":"dac54b99-212a-4d16-aa3c-abd67683fcc0","name":"בי\"ס אהוד","address":"חיפה, אהוד, 18","latitude":32.7916962,"longitude":34.990017099999996},{"id":"dacbab93-fca0-4c9f-8cb6-4e4f99fe276a","name":"נופי סלע","address":"מעלה אדומים, נופי סלע, הרכס","latitude":31.7819697,"longitude":35.3114578},{"id":"dae01ae8-a6b7-4194-a765-b457ebfe5939","name":"מגרש שוק ישן","address":"טמרה, שכונת אלגזאלי","latitude":32.8530009,"longitude":35.2018701},{"id":"db2bf67e-462f-4ff0-818a-c1dbf9837535","name":"מגרש ביה\"ס אהוד מנור","address":"פתח תקווה","latitude":32.084041,"longitude":34.887761999999995},{"id":"db2c002f-c435-4089-a446-33c529f90420","name":"רעות","address":"ראשון לציון, ראובן ובת שבע, 4","latitude":31.970776399999995,"longitude":34.815357999999996},{"id":"db4b66a2-c762-472e-9d0c-4f108d91b57f","name":"משולב כוכב יעקב","address":"מטה בנימין","latitude":31.948595499999996,"longitude":35.1708741},{"id":"dc5f9fab-de2c-4702-bde2-604727ac2a35","name":"קיסריה","address":"חוף הכרמל, שכ\u0027 1","latitude":32.6480083,"longitude":34.9528102},{"id":"dc737f08-1acc-4d2c-93c4-988fa1f902c0","name":"גבים","address":"באר שבע, י\"א, חתם סופר","latitude":31.2521018,"longitude":34.7867691},{"id":"dcd764fd-52ed-4bd8-acdd-fb1ed9cd7957","name":"מגרש משולב עצמאות","address":"מגדל העמק, מרכז, דרך העצמאות","latitude":32.6807564,"longitude":35.2349601},{"id":"dd20cda5-43fd-433b-a84f-d55ab818c13b","name":"מגרש משולב בסמטת הדרור","address":"פרדסיה, ותיקים, סמטת הדרור","latitude":32.303196,"longitude":34.9129337},{"id":"dd2c49d0-a575-4a4a-aeef-bcd667d02376","name":"משולב יבנה","address":"נתניה, נאות הרצל, יבנה, 4","latitude":32.339517,"longitude":34.871202},{"id":"dd3fce20-9e5e-4a96-ab46-34a632bfe50d","name":"עין הקורא","address":"ראשון לציון, ברניצקי, 29","latitude":31.9590938,"longitude":34.797326399999996},{"id":"dd44e286-0167-4bfb-adf2-5be5e4c6ee64","name":"מגרש עמל","address":"דימונה, כובשי אילת, באבא סאלי","latitude":31.0604827,"longitude":35.0323262},{"id":"dd58f2bf-5306-4c35-8d11-9787669966f1","name":"מגרש חט\"ב פינברג","address":"פתח תקווה","latitude":32.084041,"longitude":34.887761999999995},{"id":"ddb117f6-69a2-478c-b36d-be60574081c5","name":"מגרש משולב שיכון ד\u00271070","address":"טבריה, שיכון ד\u0027, ר\"ח אבוחצירה","latitude":32.7765667,"longitude":35.5113398},{"id":"ddb13614-53be-4572-a9fd-9291d4ff4aeb","name":"מגרש משולב רבין","address":"כרמיאל, רמת רבין, חטיבת יפתח, 200","latitude":32.9018875,"longitude":35.276455299999995},{"id":"deff07bc-dc82-4a5e-8bc0-f101a257bc3e","name":"מקיף י אבני החושן","address":"ראשון לציון, אבני החושן, 3","latitude":31.984051599999997,"longitude":34.7740772},{"id":"df3aa320-7d63-42e2-956a-2ffb6410d0a2","name":"ביה\"ס המגן","address":"הוד השרון, המגן","latitude":32.1559112,"longitude":34.907715},{"id":"df3b384d-7141-4634-9169-e429d95932c5","name":"מגרש אופק","address":"אשדוד, רובע ט\u0027ו, שדרות רוטשילד-כיכר עוזי נרקיס","latitude":31.7719277,"longitude":34.6297079},{"id":"dfd11393-d001-42cb-b0d1-1613d46a3e4f","name":"מגרש משולב תיכון אל מאמוניה","address":"ירושלים,  עלי אבן אבו טאלב","latitude":31.7884563,"longitude":35.2313827},{"id":"dfe106a8-5495-41b9-9f78-6f5a34352a01","name":"משולב ואדי אלסקיע","address":"שפרעם, ואדי אלסקיע","latitude":32.794498,"longitude":35.174042},{"id":"e056c5d6-9ad2-4d3a-8816-d96d8c3a2504","name":"מגרש משולב ב\"ס ג","address":"אכסאל, צפוני מערבי, 36, 5","latitude":32.6821176,"longitude":35.3229703},{"id":"e059aa03-ba5a-4925-80bd-f81e2e365cd3","name":"בי\"ס אמירים","address":"חולון, בן גוריון, משעול דר, 2","latitude":31.996116899999997,"longitude":34.7708169},{"id":"e0756f30-bef8-48dc-88e5-c36dd038047f","name":"מגרש בה\"ס גני אביב","address":"לוד, גני אביב, אהרון לובלין","latitude":31.9608954,"longitude":34.8801516},{"id":"e14aae1d-77ba-494c-b99a-de033e37fc03","name":"מגרש משולב יסודי ב","address":"ג\u0027לג\u0027וליה, אלמשרוע ליד המועצה, 127","latitude":32.152456799999996,"longitude":34.9539749},{"id":"e1655ba5-3920-491e-ac62-fe87c7df22fb","name":"קשת","address":"אשדוד, רובע י\u0027ב, תשרי","latitude":31.779673999999996,"longitude":34.637449},{"id":"e18a324b-5716-4b53-9da4-0c780619e349","name":"מגרש משולב פתוח","address":"שדות דן","latitude":31.9826199,"longitude":34.856898199999996},{"id":"e19172dc-3aa5-421d-957e-a26ac9816ef8","name":"מגרש הספורט נחלים","address":"חבל מודיעין, מושב נחלים","latitude":32.0585313,"longitude":34.911998},{"id":"e250bdb4-ff3a-4ae7-b4a3-f1e293d3e077","name":"מגרש משולב","address":"אבו סנאן, שכונת החיילים","latitude":32.95803,"longitude":35.171969},{"id":"e2a130a2-0e54-4078-8541-b0a0dd4addcc","name":"מגרש כדור רגל עירוני","address":"אריאל, רובע ב, כביש 31","latitude":31.2557793,"longitude":35.075906},{"id":"e2b403b0-df78-43eb-ba1d-86df5379a512","name":"מגרש ממ\"ד אורי אורבך","address":"פתח תקווה","latitude":32.084041,"longitude":34.887761999999995},{"id":"e2db052b-acc1-4834-ba8d-bccdc25790a4","name":"מגרש טיילת","address":"אלעד, שמעיה, 18","latitude":32.0513368,"longitude":34.9450174},{"id":"e317a62e-9677-4e52-aa5b-d3ac74c8c5f7","name":"טניס, קטרגל, כדורסל","address":"כפר ורדים, שלב ב\u0027, מירון","latitude":32.9962485,"longitude":35.2606358},{"id":"e3797dfb-aac9-4a9f-bae4-03a60ed2ed15","name":"מגרש משולב יסודי ג","address":"כפר כנא, לא מזוהה","latitude":32.750474,"longitude":35.3400398},{"id":"e3ce57ad-a40e-4a14-ae6b-d83532af3aaf","name":"מגרש מלטון","address":"בת ים, רמת הנשיא, הדקל, 4","latitude":32.0112668,"longitude":34.754351199999995},{"id":"e400f49d-8952-48a5-b4fa-9e6952244022","name":"מגרש ביהס חקלאי כנות","address":"באר טוביה, אזור תעשיה","latitude":31.734379599999997,"longitude":34.7244494},{"id":"e428959f-389b-4e18-899b-6a780eac65d2","name":"מגרש גרסי","address":"רמלה, מאיר בינט, 1","latitude":31.9361327,"longitude":34.8561354},{"id":"e43594da-59d5-4c8f-a745-c1e6bc1dea3e","name":"מגרש קט רגל תיכון רבין -חדש","address":"קרית גת, מלכים, גאון הירדן","latitude":31.6112245,"longitude":34.7546381},{"id":"e43ecd7d-72b6-459e-b4a7-f7d659b17055","name":"מגרש בי\"ס איילים","address":"טבריה, 200+, רח\u0027 אלנטאון","latitude":32.7860535,"longitude":35.5173092},{"id":"e4cef20d-9d21-474e-a031-c953d957fd79","name":"מגרש משולב נוג\u0027ידאת","address":"בועיינה-נוג\u0027ידאת, נוג\u0027ידאת ליד ביה\"ס אלזייתון, ביה\"ס אלזייתון","latitude":32.812754999999996,"longitude":35.374468},{"id":"e4f992db-b174-4879-9a3e-5fd1ebd84652","name":"ישיבה תיכונית","address":"מעלה אדומים, מצפה נבו, מצפה נבו","latitude":31.792741999999997,"longitude":35.302876},{"id":"e52fa1bb-51c7-4b7c-8284-3841d94c3a7b","name":"מגרש משולב","address":"עילוט, דרומית - שכונת ההר","latitude":32.717248999999995,"longitude":35.261482},{"id":"e53a2123-137b-4aad-a651-8b0e68621bea","name":"בית צוקר","address":"דימונה, יגאל אלון, יגאל אלון","latitude":31.0637467,"longitude":35.0374809},{"id":"e5830d71-1970-423d-99cb-6edfdb3fe033","name":"מגרש משולב","address":"גוש עציון, כפר אלדד","latitude":31.653952999999998,"longitude":35.250994999999996},{"id":"e5a22ffa-832b-4ed1-86c9-1fe0799cf286","name":"גן ברטונוב","address":"תל אביב-יפו, ברטונוב, 3","latitude":32.1168656,"longitude":34.828900499999996},{"id":"e647aff8-8d61-4857-8ee6-2a20784d6569","name":"בוסתן הגליל משולב","address":"מטה אשר","latitude":33.005980199999996,"longitude":35.148879},{"id":"e6afaf4a-1a37-4c43-b86b-96cba6465e3f","name":"עין חוד","address":"חוף הכרמל, עין חוד","latitude":32.691361,"longitude":34.999058},{"id":"e797c1f6-2e87-45c2-802d-ebd491d891d1","name":"מגרש משולב","address":"בסמ\"ה, עין אלסהלה","latitude":32.491481,"longitude":35.117506},{"id":"e7a1fe6b-d24f-40d2-b590-02b495a688ed","name":"מגרש הכדורגל כפר דניאל","address":"חבל מודיעין, מושב כפר דניאל","latitude":31.933521000000002,"longitude":34.932306},{"id":"e88b0519-f567-4827-8a9f-36f4077c61d7","name":"נבון","address":"רחובות, הר תבור, 5","latitude":31.891958300000002,"longitude":34.782564},{"id":"e96a4c30-085f-4c82-89a7-490d392b7085","name":"משולב עפרה","address":"מטה בנימין","latitude":31.948595499999996,"longitude":35.1708741},{"id":"e9e7457a-2ddc-49a8-a1a6-e72635d1f325","name":"מגרש משולב ביה\"ס היובל","address":"יהוד, קריית הסביונים, משה דיין, 20","latitude":32.0338005,"longitude":34.8777439},{"id":"ea365fb1-dae0-4753-a346-62daa132f313","name":"מגרש משולב","address":"לקיה, שכ 6, שכ 6","latitude":31.9512433,"longitude":34.9315856},{"id":"ea63db62-9439-40ff-b9ed-5db6e8011630","name":"שכונת החרמון","address":"עכו, צפון, החרמון, 5","latitude":32.9345232,"longitude":35.074137199999996},{"id":"ea7450b4-7df2-4ee2-af68-1993e4decc86","name":"מגרש בית ספר מנור","address":"גן יבנה","latitude":31.783602799999997,"longitude":34.703177},{"id":"eaa1e04d-bfac-4802-9b2a-9eaacad0df09","name":"בית נוער עציון","address":"כפר סבא, הרב גולד, 14","latitude":32.18013,"longitude":34.9146966},{"id":"eabadabd-fa6e-4013-b5c9-3044d0c60c79","name":"מגרש משולב פתוח","address":"שדות דן","latitude":31.9826199,"longitude":34.856898199999996},{"id":"eabcb4d3-3324-4083-9352-129783e7ac1c","name":"מגרש אזורי - תומר","address":"בקעת הירדן"},{"id":"eaf66877-4464-4469-ab99-d249ea1ad01f","name":"מגרש ספורט - נחשון בנים","address":"קדומים","latitude":32.21239,"longitude":35.157388},{"id":"eafe6215-7f9a-4c81-8ddc-7106660da84b","name":"בי\"ס כינר משולב","address":"טבריה, ר\"ח גורדון, רח\u0027 דב הוז","latitude":32.7983101,"longitude":35.5250118},{"id":"eb5f01cd-cd06-42b7-9eb9-fbe6010835ea","name":"מגרש משולב בית ספר אילן רמון","address":"גן יבנה","latitude":31.783602799999997,"longitude":34.703177},{"id":"eb9cd94e-b9f7-46da-b84d-7fb46208ae04","name":"תיכון נבון","address":"חולון, בן גוריון, קרסל, 2","latitude":31.996967399999996,"longitude":34.7686846},{"id":"ec21c12c-6b54-49ff-b689-8efe666a7409","name":"גו הי\"א","address":"תל אביב-יפו, שבטי ישראל , יפו, 70","latitude":32.043922099999996,"longitude":34.753250099999995},{"id":"ec27f4f0-4a55-4ce3-8966-9a73e10a60ad","name":"מגרש הספורט נופך","address":"חבל מודיעין, מושב נופך","latitude":32.043748,"longitude":34.920306},{"id":"ecfbcc60-6207-4a9c-a053-21db56d2c579","name":"מגרש משולב- מועדון אל אבנא","address":"ירושלים, מזרח ירושלים, א סעדייה, 1","latitude":31.7974497,"longitude":35.1478788},{"id":"ed07aeff-3e4d-4a13-9db3-bff16219c7ea","name":"מגרש משולב במשה דיין","address":"שדרות, דרך משה דיין, 903","latitude":31.530008700000003,"longitude":34.6039702},{"id":"ed0dd5fc-f46c-4137-a17a-5afc079dce81","name":"בן גוריון","address":"ראשון לציון, דרובין, 32","latitude":31.957145399999998,"longitude":34.7991374},{"id":"ed587e66-3279-4c4a-8acb-3f91e9f472f9","name":"גן כרמל - רמות","address":"באר שבע, רמות, רמות","latitude":31.273348000000002,"longitude":34.811319999999995},{"id":"ed5a3fb8-4dd7-4709-a890-0e1852a1f6f1","name":"מגרש בית ספרי ולחוגים פדואל","address":"שומרון","latitude":32.422877,"longitude":35.302722599999996},{"id":"ed610027-b7c0-48e0-ae65-25fe80a707f4","name":"מגרש זבולון המר","address":"לוד, גני אביב, אהרון לובלין","latitude":31.9608954,"longitude":34.8801516},{"id":"ed9b7e3a-bab4-41c3-92d0-b634f347d621","name":"אורט בגאולים - מגרש משולב","address":"כפר סבא, אלקלעי, 1","latitude":32.1690901,"longitude":34.9237588},{"id":"ee0b4df6-10d7-4923-ad08-a8b06fe2ba3b","name":"משולב אבן חן","address":"שוהם, גבעולים, תפן, 7","latitude":32.002048099999996,"longitude":34.9432343},{"id":"ee981f02-1092-4d74-ac95-7b3371f492e6","name":"מיכה רייסר","address":"ראשון לציון, גוש עציון, 24","latitude":31.967374799999995,"longitude":34.819494899999995},{"id":"eeb1b8a6-47df-4e7a-94c9-50da11be4b2f","name":"מקורה גבעה צהובה","address":"גוש עציון","latitude":31.668742199999997,"longitude":35.2368246},{"id":"eeb3e7e6-70d9-425d-9aea-2b4bbfcf283f","name":"מגרש ששת הימים","address":"בנימינה-גבעת עדה, מושבה, ששת הימים","latitude":32.519994,"longitude":34.954851},{"id":"ef52b2ca-2b45-478e-8431-d44e2fba3aef","name":"מגרשי ספורט פארק רעננה","address":"רעננה","latitude":32.1923797,"longitude":34.8745337},{"id":"ef97ef23-ba95-40ba-bd7e-7aefdc1f16e5","name":"מגרש משולב כפר עזה","address":"שער הנגב","latitude":31.507725699999995,"longitude":34.6303372},{"id":"efe2c89b-9dc2-4eac-8bc2-9f8e044d7390","name":"מול יול\"א בעומרים","address":"עומר, רותם"},{"id":"f009d0b4-20f6-4de0-a7e8-e38cbb9e4661","name":"מגרש ביה\"ס נתן יונתן","address":"פתח תקווה","latitude":32.084041,"longitude":34.887761999999995},{"id":"f038f851-25cf-42cf-a510-cb122b38b6d5","name":"מגרש משולב ספורטן","address":"הוד השרון","latitude":32.149961,"longitude":34.8838788},{"id":"f05c9118-9bfe-46af-ace9-e90edd75d5cb","name":"אשכולות","address":"ראשון לציון, דרובין, 35","latitude":31.9563898,"longitude":34.799859999999995},{"id":"f0de8afe-7b2e-479f-b4a8-39f391abad36","name":"מגרש כדורגל ניצנים","address":"חוף אשקלון, ד.נ. חוף אשקלון","latitude":31.621438100000002,"longitude":34.619270199999995},{"id":"f0ef5a0f-b903-4999-a3be-af7cde9f2297","name":"מגרש חט\"ב ברנר","address":"פתח תקווה","latitude":32.084041,"longitude":34.887761999999995},{"id":"f0fcc102-7273-48fa-9d7c-3292b289a720","name":"משולב מפלסים","address":"שער הנגב","latitude":31.507725699999995,"longitude":34.6303372},{"id":"f14c042f-6658-42ea-8bd4-362def911cc4","name":"מגרש ספורט משולב - מתנ\"ס \"רעים \"-שכ\u0027 נווה חיים","address":"חדרה, נווה חיים, המגינים, 7","latitude":32.4494369,"longitude":34.9039077},{"id":"f167b3d7-1a90-4e08-8a7d-14dd9053996c","name":"חורשת רבנו ירוחם","address":"תל אביב-יפו, רבנו ירוחם, 2","latitude":32.048524500000006,"longitude":34.7597303},{"id":"f17137cf-5a47-483e-a98e-6917b4f4e42f","name":"מנורה","address":"גבעתיים, שפירא, 4","latitude":32.0816053,"longitude":34.8046289},{"id":"f19bb328-8614-42d5-938b-094a35338b09","name":"משולב ניר עם","address":"שער הנגב","latitude":31.507725699999995,"longitude":34.6303372},{"id":"f1c0397f-3149-45c8-88c1-48fea8db73c2","name":"מגרש ספורט בית ספר מ\"מ ב\u0027","address":"צפת","latitude":32.964648,"longitude":35.495996999999996},{"id":"f2042f01-478b-401a-9117-e24c2e39c7df","name":"מגרש משולב מתנ\"ס שטינברג","address":"יהוד, מוהליבר, רם כהן, 5","latitude":32.0405751,"longitude":34.8925914},{"id":"f213e0d6-e3e3-4e46-a438-4e6069f6460e","name":"עין איילה","address":"חוף הכרמל, מושב עין איילה","latitude":32.629963,"longitude":34.944296},{"id":"f275dcc2-01eb-43ac-b8d9-a37426423beb","name":"מגרש רב-תכליתי ג. עדה","address":"בנימינה-גבעת עדה, אילנות, הדפנה","latitude":32.517784,"longitude":35.0168877},{"id":"f2923fbb-b763-4d63-bd9c-d285505906a0","name":"מגרש משולב נווה העמק","address":"ירוחם","latitude":30.987177799999998,"longitude":34.9310463},{"id":"f2986ee5-1f80-49ef-9d5f-29165b91e2af","name":"מגרש שדה עוזיה","address":"באר טוביה, מושב שדה עוזיה","latitude":31.758437,"longitude":34.678194},{"id":"f29c06d1-d2c6-4415-815b-31f4a973644d","name":"מגרש סחבק","address":"קלנסווה","latitude":32.2854576,"longitude":34.9810942},{"id":"f44dfaf1-bbaa-4664-a197-1edb8b3967d2","name":"מגרש בית ספר אילן רמון","address":"גן יבנה","latitude":31.783602799999997,"longitude":34.703177},{"id":"f45d2575-ff9f-4cb0-89f4-cd7ee7fc2d3f","name":"מגרש משולב גריפאת בית ספר","address":"זרזיר, גריפאת, גריפאת","latitude":32.728255,"longitude":35.213921},{"id":"f466045d-59a8-4019-8b5f-b7192b7613b3","name":"גן תבואת הארץ","address":"תל אביב-יפו, תבואת הארץ, 3","latitude":32.111625800000006,"longitude":34.827362400000005},{"id":"f46d966c-898c-4a3d-b07f-8759f7365467","name":"קט רגל","address":"ערערה-בנגב, שכונה 2 ב, ערערה בנגב","latitude":31.165746999999996,"longitude":35.032973999999996},{"id":"f4ba9842-42d7-4346-9107-519d28e8ca18","name":"מגרש כדורגל","address":"רהט, שכ\u0027 32","latitude":31.386067999999998,"longitude":34.75085000000001},{"id":"f592e914-f22a-4f90-b356-b1bf9c159f79","name":"מגרש משולב","address":"ערערה, שכונת אדהראת","latitude":32.496323,"longitude":35.097291999999996},{"id":"f5beb7db-dbc9-412c-a570-3e8267512266","name":"שכונתי אלבסה","address":"באקה אל גרביה","latitude":32.419305,"longitude":35.035289},{"id":"f5c6ba01-f2bf-4092-ad86-b86421ef9fb8","name":"מגינים","address":"אשדוד, רובע ג\u0027, חטיבת הנגב","latitude":31.8014291,"longitude":34.6642253},{"id":"f6154d18-f7aa-4a60-8aab-fd7e357f22e6","name":"מגרש משולב כרמי קטיף","address":"לכיש","latitude":31.5615742,"longitude":34.8429273},{"id":"f62bd796-ede4-4981-bd74-5bd75b0dc68f","name":"מגרש יסודי א +חטב","address":"ג\u0027לג\u0027וליה, עאבד, 131","latitude":32.152456799999996,"longitude":34.9539749},{"id":"f6353599-e0ae-4a87-81e8-a68e445b858c","name":"לוי אשכול","address":"נתניה, גלי ים, רחוב לוי אשכול מול מספר 17","latitude":32.2963922,"longitude":34.846370799999995},{"id":"f64f7eb1-113a-4a95-9849-ac3c2b31db58","name":"מגרש ספורט משולב-קלרין","address":"חדרה, קלרין, הנבל","latitude":32.427627,"longitude":34.9124604},{"id":"f6597c2a-d0af-4792-be4c-2aab10fe2823","name":"מגרש משולב חט\"ב נוה יונתן","address":"רמלה, מבצע יונתן, 7","latitude":31.925450299999998,"longitude":34.8559704},{"id":"f66883db-b9ec-4790-90be-149d3c62c5b7","name":"מגרש משולב בי\"ס חט\"ב","address":"אעבלין, דרומית, יציאה דרומית לכיוון שפרעם","latitude":32.798458,"longitude":35.170536},{"id":"f687f90b-94c2-49f2-b48c-a32600902cc4","name":"מגרש משולב חב\"ד בנים","address":"לוד, חב\"ד, צמח צדק","latitude":31.942752,"longitude":34.875925},{"id":"f68efe62-de9f-471c-b742-5299d0e919bd","name":"מישור הנוף","address":"ראשון לציון, גיבשטיין, 31","latitude":31.951151499999995,"longitude":34.810898099999996},{"id":"f7022bdb-ca92-4777-a443-6091a5ad2aca","name":"בי\"ס בן גוריון","address":"חולון, קרית בן גוריון, גרינברג, 6","latitude":31.998013,"longitude":34.769968},{"id":"f709a756-01bc-4d35-a92e-8609fc9eaab3","name":"משולב שי עגנון","address":"נתניה, נאות הרצל, שפינוזה, 1","latitude":32.3362122,"longitude":34.8703212},{"id":"f782bc65-d7ce-42f3-ae6b-4f951c801a84","name":"תיכון קוגל","address":"חולון, קרית אילון, מוטה גור, 7","latitude":32.0092932,"longitude":34.7829358},{"id":"f86ea7bb-8d39-4743-b475-208019b4468f","name":"מגרש משולב בית ספר דקל","address":"רעננה, שברץ, 24","latitude":32.1828356,"longitude":34.882737399999996},{"id":"f8713af5-306d-4599-b2ed-ceef01c882b5","name":"מתקני ספורט שחרות","address":"חבל אילות","latitude":30.130876999999998,"longitude":34.9506625},{"id":"f8e9b3b7-39d6-4635-aa89-d407c5ee55d1","name":"מגרש ספורט - נחשון בנות","address":"קדומים","latitude":32.21239,"longitude":35.157388},{"id":"f92e75b1-a412-4b73-8249-2fd555c0977f","name":"מגרש משולב גבעת הסביונים","address":"קרית מלאכי","latitude":31.7302546,"longitude":34.7466157},{"id":"f9300441-1b99-42d7-9ba6-d3b1d3ad3597","name":"כדורסל כדורגל משולב","address":"גוש עציון","latitude":31.668742199999997,"longitude":35.2368246},{"id":"f9350355-9003-4f84-8bd0-3ffa60857b9e","name":"מגרש ספורט משולב","address":"עין מאהל, שכונה צפונית","latitude":32.7234184,"longitude":35.3553423},{"id":"f9717a84-6304-4ea9-a631-eaccd413207d","name":"מגרש כדורגל בבית הספר התיכון \"דרכא\"","address":"נתיבות, קריית מנחם, 413","latitude":31.419764,"longitude":34.57633},{"id":"faddd2a3-dc55-4586-800d-c1deb2cb26dd","name":"מגרש משולב עיאדאת","address":"זרזיר, עיאדאת, עיאדאת","latitude":32.71864000000001,"longitude":35.222327},{"id":"fbe9ee5e-6491-4000-ac70-33e31e221b95","name":"מגרש מקורה-סביונים","address":"נס ציונה, לב המושבה, השופטים, 7","latitude":31.9245725,"longitude":34.8107295},{"id":"fc30a23f-1a88-487b-93e9-a22a36ba4f55","name":"מגרש כדורגל  -  מגרש אימון הפועל","address":"ירושלים, רמות אשכול, ככר זלמן ארן","latitude":31.8017939,"longitude":35.2271172},{"id":"fd78ec1f-582d-406b-97cd-c2f8914e77da","name":"בי\"ס המגינים","address":"חולון, תל גיבורים, חזית חמש, 2","latitude":32.0318899,"longitude":34.7615645},{"id":"fdb937a3-e941-49ac-b624-a7d569763b64","name":"מגרש משולב בי\"ס בר אילן","address":"רמלה, ברזילי, 3","latitude":31.930161199999993,"longitude":34.858492},{"id":"fdcf7b94-fd05-45f1-819c-0b2a56c49b59","name":"נווה חוף","address":"ראשון לציון, חיל שיריון, 4","latitude":31.999146000000003,"longitude":34.740995100000006},{"id":"fe38b4e4-29fd-40a2-9897-583e5a8d0c06","name":"מגרש הספורט בלפיד","address":"חבל מודיעין, ישוב קהילתי לפיד","latitude":31.917521999999998,"longitude":35.032191},{"id":"fe4365c7-5e6a-4020-8f92-340f86cfc6fc","name":"מגרש בני דקלים","address":"לכיש","latitude":31.5615742,"longitude":34.8429273},{"id":"fe471fa5-3c3e-4902-b4e3-f6534dd5865e","name":"טלאל","address":"משגב, ישוב קהילתי","latitude":32.8603344,"longitude":35.257075799999996},{"id":"fe504dc1-5f67-4406-b828-1aa95f4cd568","name":"מגרש ביה\"ס הדר","address":"פתח תקווה","latitude":32.084041,"longitude":34.887761999999995},{"id":"fe55b56a-ab49-48f6-932e-9d0680ceaf1e","name":"מגרש משולב ביה\"ס מקיף אלנור","address":"חורה, שכונה 17, רחוב אלנור, 2","latitude":31.2987319,"longitude":34.925585999999996},{"id":"feda2172-e820-4769-85dc-478727e9a015","name":"מגרש משולב חטיבת יונתן","address":"רעננה, רש\"י, 19","latitude":32.175866899999995,"longitude":34.8840843},{"id":"fede521e-2d5f-4384-aa1b-28c4e56983ac","name":"ארזים","address":"ראשון לציון, העצמאות","latitude":31.9787246,"longitude":34.8003898},{"id":"fef9272a-2aef-4fc7-ba40-fe0bac55bd74","name":"בי\"ס ארלוזרוב","address":"חיפה, הקיבוצים, 65","latitude":32.827151799999996,"longitude":35.0730861}]